Name KA;Bundesland;Rechtswert;Hochwert;Koordinatensystem;Ausbaugröße;Jahresabwassermenge [m^3/a];Abwassereinigung;pl_n_tech;pl_p_tech;pl_uv;pl_chlorination;pl_ozonation;pl_sand_filtration;pl_micro_filtration;pl_other;pl_other_comment;N-Ablauffracht [kg/a];P-Ablauffracht [kg/a];Einleitgewässer;Flusseinzugsgebiet;Flussgebietseinheit;lat;long
Lenzen;BB;33263086;5888519;ETRS89_UTM33;5632;86000;weitergehende Beh.;1;1;0;0;0;0;0;0;(null);576;103;Löcknitz;Elbe;Elbe;53.09344906;11.46151574
Wittenberge;BB;33278647;5880130;ETRS89_UTM33;45000;1000000;weitergehende Beh.;1;1;0;0;0;0;0;0;(null);4699;1090;Elbe;Elbe;Elbe;53.02484065;11.69925882
Karstädt;BB;33281135;5894673;ETRS89_UTM33;10000;268000;weitergehende Beh.;1;1;0;0;0;0;0;0;(null);462;1006;Semmliner Graben;Elbe;Elbe;53.15638207;11.72639233
Perleberg;BB;33288930;5883309;ETRS89_UTM33;65000;855500;weitergehende Beh.;1;1;0;0;0;0;0;0;(null);2652;539;Stepenitz;Elbe;Elbe;53.05752825;11.85025525
Bad Wilsnack;BB;33295209;5873218;ETRS89_UTM33;6000;152000;weitergehende Beh.;1;1;0;0;0;0;0;0;(null);654;213;LV 3/73 - Karthane;Elbe;Elbe;52.96938699;11.95020644
Pritzwalk;BB;33309068;5894576;ETRS89_UTM33;30000;1076000;weitergehende Beh.;1;1;0;0;0;0;0;0;(null);2153;969;Dömnitz;Elbe;Elbe;53.16625636;12.14364016
Meyenburg;BB;33315015;5912594;ETRS89_UTM33;2500;101000;weitergehende Beh.;1;1;0;0;0;0;0;0;(null);202;30;Graben 1/28/02-Stepenitz;Elbe;Elbe;53.33013039;12.22202566
Ziesar;BB;33316240;5795764;ETRS89_UTM33;6750;172513;weitergehende Beh.;1;1;0;0;0;0;0;0;(null);1725;224;Siebbach;Elbe;Elbe;52.2814773;12.30607871
Gumtow;BB;33316787;5875264;ETRS89_UTM33;2500;84000;weitergehende Beh.;1;1;0;0;0;0;0;0;(null);157;179;Westliche Jäglitz;Elbe;Elbe;52.99556462;12.26997059
Heidefeld;BB;33319145;5827924;ETRS89_UTM33;4700;103000;weitergehende Beh.;1;1;0;0;0;0;0;0;(null);1143;829;Havel. rechtes Ufer;Elbe;Elbe;52.57125702;12.33121841
Görzke;BB;33319204;5784432;ETRS89_UTM33;2500;44000;weitergehende Beh.;1;1;0;0;0;0;0;0;(null);61;100;Grundwasser. Buckau-Quellgebiet;Elbe;Elbe;52.1806874;12.35553866
Rathenow;BB;33319317;5834247;ETRS89_UTM33;40000;1081000;weitergehende Beh.;1;1;0;0;0;0;0;0;(null);2313;1373;Havel;Elbe;Elbe;52.62809652;12.33030135
Hohennauen;BB;33319914;5839887;ETRS89_UTM33;8500;142000;weitergehende Beh.;1;0;0;0;0;0;0;0;(null);2350;1300;Landwirtschaftlicher Graben;Elbe;Elbe;52.67894344;12.33603313
MFKE Premnitz;BB;33320984;5823359;ETRS89_UTM33;10300;1333115;weitergehende Beh.;1;1;0;0;0;0;0;0;(null);2377;738;Havel bei Döberitz km 88.8;Elbe;Elbe;52.53086897;12.36078639
Wiesenburg/Mark;BB;33325321;5775754;ETRS89_UTM33;6000;179000;weitergehende Beh.;1;1;0;0;0;0;0;0;(null);404;160;Seegraben;Elbe;Elbe;52.10471389;12.44937232
Brandenburg - Briest;BB;33325674;5810607;ETRS89_UTM33;143400;5022000;weitergehende Beh.;1;1;0;0;0;0;0;0;(null);46462;1353;Havel;Elbe;Elbe;52.41786148;12.4365223
Neustadt (Dosse);BB;33328163;5859404;ETRS89_UTM33;30000;1121000;weitergehende Beh.;1;1;0;0;0;0;0;0;(null);2276;1147;Schwenze;Elbe;Elbe;52.85690189;12.44768839
Pritzerbe;BB;33328850;5820744;ETRS89_UTM33;4200;140000;weitergehende Beh.;1;0;0;0;0;0;0;0;(null);3950;1120;Abzugsgraben zur Havel;Elbe;Elbe;52.5099103;12.47797515
Wittstock/Dosse;BB;33331269;5890966;ETRS89_UTM33;25000;668000;weitergehende Beh.;1;1;0;0;0;0;0;0;(null);2993;347;Dosse;Elbe;Elbe;53.14133512;12.47729561
Nennhausen;BB;33333321;5830809;ETRS89_UTM33;5000;96000;weitergehende Beh.;1;0;0;0;0;0;0;0;(null);1564;947;Mündung Erster Flügelgraben;Elbe;Elbe;52.60169746;12.53873541
Belzig;BB;33336060;5780016;ETRS89_UTM33;10000;438317;weitergehende Beh.;1;1;0;0;0;0;0;0;(null);2006;241;Bodenfilter;Elbe;Elbe;52.14628577;12.60397432
Wagenitz;BB;33340298;5837698;ETRS89_UTM33;5000;162500;weitergehende Beh.;1;0;0;0;0;0;0;0;(null);2145;1203;Großer Hvl. Hauptkanal;Elbe;Elbe;52.6656721;12.63833272
Jeserig;BB;33341807;5808184;ETRS89_UTM33;16000;471000;weitergehende Beh.;1;1;0;0;0;0;0;0;(null);3251;218;Graben zur Havel;Elbe;Elbe;52.40099945;12.67468175
Niemegk;BB;33342253;5773640;ETRS89_UTM33;4700;104107;weitergehende Beh.;1;1;0;0;0;0;0;0;(null);219;146;Buffbach;Elbe;Elbe;52.09081029;12.69736077
Lehnin;BB;33344877;5799253;ETRS89_UTM33;21000;208385;weitergehende Beh.;1;1;0;0;0;0;0;0;(null);140;114;Emster Kanal;Elbe;Elbe;52.32164834;12.72389774
Werder;BB;33345402;5864984;ETRS89_UTM33;3500;135000;weitergehende Beh.;1;0;0;0;0;0;0;0;(null);972;702;Temnitz;Elbe;Elbe;52.9122493;12.70085256
Brück - Hackenhausen;BB;33345660;5787437;ETRS89_UTM33;16000;443000;weitergehende Beh.;1;1;0;0;0;0;0;0;(null);3189;753;B-Graben;Elbe;Elbe;52.2157196;12.74078189
Roskow;BB;33346853;5816644;ETRS89_UTM33;25000;1535000;weitergehende Beh.;1;1;0;0;0;0;0;0;(null);24822;2785;Havel;Elbe;Elbe;52.47843351;12.74491217
Fehrbellin;BB;33347728;5853901;ETRS89_UTM33;15000;382000;weitergehende Beh.;1;1;0;0;0;0;0;0;(null);1148;383;Rhin;Elbe;Elbe;52.81335896;12.74059449
Neuruppin;BB;33353226;5869024;ETRS89_UTM33;44000;1787000;weitergehende Beh.;1;1;0;0;0;0;0;0;(null);13563;1483;Landwehrgraben-Temnitz;Elbe;Elbe;52.95073459;12.81528722
Treuenbrietzen;BB;33354445;5775209;ETRS89_UTM33;10000;411000;weitergehende Beh.;1;1;0;0;0;0;0;0;(null);4172;361;Nieplitz;Elbe;Elbe;52.10824792;12.87451962
Nauen;BB;33356428;5834216;ETRS89_UTM33;14500;779000;weitergehende Beh.;1;1;0;0;0;0;0;0;(null);12672;1408;Bärhorstgraben;Elbe;Elbe;52.63890217;12.87818988
Werder OT Kemnitz;BB;33357392;5809265;ETRS89_UTM33;38000;1040000;weitergehende Beh.;1;1;0;0;0;0;0;0;(null);5304;2080;Havel;Elbe;Elbe;52.41499419;12.90313325
Beelitz;BB;33362110;5788492;ETRS89_UTM33;30000;790500;weitergehende Beh.;1;1;0;0;0;0;0;0;(null);9457;699;Nieplitz;Elbe;Elbe;52.22956138;12.98097418
Satzkorn;BB;33363329;5814557;ETRS89_UTM33;10000;250000;weitergehende Beh.;1;1;0;0;0;0;0;0;(null);550;128;Sacrow-Paretzer Kanal;Elbe;Elbe;52.46405691;12.98820426
Potsdam-Nord;BB;33365829;5811502;ETRS89_UTM33;90000;4197000;weitergehende Beh.;1;1;0;0;0;0;0;0;(null);43367;1917;Sacrow-Paretzer Kanal;Elbe;Elbe;52.43722791;13.0262082
Kremmen;BB;33369094;5847428;ETRS89_UTM33;10000;461000;weitergehende Beh.;1;1;0;0;0;0;0;0;(null);3657;424;Namenlosegr./Ruppiner Kanal;Elbe;Elbe;52.76081185;13.0599971
Jüterbog;BB;33369667;5762787;ETRS89_UTM33;29000;1199000;weitergehende Beh.;1;1;0;0;0;0;0;0;(null);3606;704;Nuthe;Elbe;Elbe;52.00042138;13.10139925
Wansdorf BWB;BB;33370834;5831470;ETRS89_UTM33;270000;13479300;weitergehende Beh.;1;1;0;0;0;0;0;0;(null);177100;5500;Graben in den Havelkanal;Elbe;Elbe;52.61784962;13.09203014
Schönermark OHV;BB;33373535;5876263;ETRS89_UTM33;30000;1033500;weitergehende Beh.;1;1;0;0;0;0;0;0;(null);2067;879;Nordumfluter (zur Havel);Elbe;Elbe;53.02094496;13.11456069
Luckenwalde;BB;33373719;5774910;ETRS89_UTM33;40000;1556000;weitergehende Beh.;1;1;0;0;0;0;0;0;(null);4000;2300;Nuthe- Illichengraben;Elbe;Elbe;52.11029774;13.15591103
Mühlberg;BB;33376265;5701084;ETRS89_UTM33;4800;89290;weitergehende Beh.;1;1;0;0;0;0;0;0;(null);118;313;Brottewitzer Graben;Elbe;Elbe;51.44740721;13.21938707
Schönewalde;BB;33376906;5741168;ETRS89_UTM33;8000;127000;weitergehende Beh.;1;1;0;0;0;0;0;0;(null);197;839;Schweinitzer Fließ;Elbe;Elbe;51.80778967;13.21451673
Herzberg;BB;33377075;5730420;ETRS89_UTM33;25000;440000;weitergehende Beh.;1;1;0;0;0;0;0;0;(null);1274;212;Schwarze Elster;Elbe;Elbe;51.71123479;13.22076846
Trebbin;BB;33379809;5787505;ETRS89_UTM33;10000;215000;weitergehende Beh.;1;1;0;0;0;0;0;0;(null);1098;217;Amtgraben;Elbe;Elbe;52.22483935;13.24033667
Stahnsdorf BWB;BB;33380756;5804416;ETRS89_UTM33;430000;18541801;weitergehende Beh.;1;1;0;0;0;0;0;0;(null);224000;5500;Teltow-Kanal;Elbe;Elbe;52.3770126;13.24820588
Grüneberg-Hallegraben;BB;33381406;5858399;ETRS89_UTM33;12000;326000;weitergehende Beh.;1;1;0;0;0;0;0;0;(null);3036;450;Hallegraben;Elbe;Elbe;52.86223436;13.23837834
Fürstenberg/Bredereiche;BB;33381427;5889800;ETRS89_UTM33;8000;196000;weitergehende Beh.;1;1;0;0;0;0;0;0;(null);1996;598;Obere Havel;Elbe;Elbe;53.14438157;13.22716572
Ludwigsfelde;BB;33382595;5795311;ETRS89_UTM33;48000;1307000;weitergehende Beh.;1;1;0;0;0;0;0;0;(null);2745;1045;Mittelgraben;Elbe;Elbe;52.2955889;13.27839001
Uebigau;BB;33382607;5718850;ETRS89_UTM33;17000;432000;weitergehende Beh.;1;1;0;0;0;0;0;0;(null);825;555;Schwarze Elster;Elbe;Elbe;51.60843397;13.30468637
Hohenseefeld;BB;33382826;5749044;ETRS89_UTM33;4200;73300;weitergehende Beh.;1;1;0;0;0;0;0;0;(null);396;37;Wiepersdorfer Wasserheide;Elbe;Elbe;51.87984525;13.29767616
Schlieben;BB;33386934;5731650;ETRS89_UTM33;5500;121000;weitergehende Beh.;1;1;0;0;0;0;0;0;(null);206;945;Todtengraben;Elbe;Elbe;51.72436345;13.36300411
Sperenberg. Heegesee;BB;33387158;5777657;ETRS89_UTM33;3850;102304;weitergehende Beh.;1;1;0;0;0;0;0;0;(null);2124;129;Heegesee;Elbe;Elbe;52.1378906;13.35115731
Lychen;BB;33387939;5895415;ETRS89_UTM33;8000;125600;weitergehende Beh.;1;1;0;0;0;0;0;0;(null);2513;100;Graben - Großer Lychensee;Elbe;Elbe;53.19624344;13.32251538
Bad Liebenwerda;BB;33388249;5709197;ETRS89_UTM33;20000;395000;weitergehende Beh.;1;1;0;0;0;0;0;0;(null);2335;444;Schwarze Elster;Elbe;Elbe;51.5228203;13.38919833
Winkel;BB;33389083;5711682;ETRS89_UTM33;5000;97900;Zweitbehandlung;0;0;0;0;0;0;0;0;(null);3503;609;Landgraben;Elbe;Elbe;51.54532031;13.40043187
Zehdenick;BB;33390226;5869851;ETRS89_UTM33;15000;464000;weitergehende Beh.;1;1;0;0;0;0;0;0;(null);2276;325;Voßkanal;Elbe;Elbe;52.96701187;13.36546149
Liebenwalde;BB;33392295;5856304;ETRS89_UTM33;14000;533000;weitergehende Beh.;1;1;0;0;0;0;0;0;(null);8275;919;Malzer Kanal;Elbe;Elbe;52.84569727;13.400746
Dahme;BB;33392590;5748678;ETRS89_UTM33;7500;195000;weitergehende Beh.;1;1;0;0;0;0;0;0;(null);937;138;Dahme;Elbe;Elbe;51.87852203;13.43958373
Zossen Tandem-KA;BB;33394982;5784311;ETRS89_UTM33;33000;992400;weitergehende Beh.;1;1;0;0;0;0;0;0;(null);28645;1864;Müllergraben;Elbe;Elbe;52.19923583;13.46337594
Templin;BB;33397760;5883036;ETRS89_UTM33;22400;650800;weitergehende Beh.;1;1;0;0;0;0;0;0;(null);2603;520;Schulzenfließ;Elbe;Elbe;53.08698426;13.47341959
Lindena;BB;33397798;5716354;ETRS89_UTM33;25000;340000;weitergehende Beh.;1;1;0;0;0;0;0;0;(null);1423;109;Kleine Elster;Elbe;Elbe;51.58896098;13.52470805
Elsterwerda;BB;33398574;5701820;ETRS89_UTM33;80000;1217000;weitergehende Beh.;1;1;0;0;0;0;0;0;(null);3164;702;Schwarze Elster;Elbe;Elbe;51.45845855;13.54009015
Baruth;BB;33398850;5766725;ETRS89_UTM33;8000;307000;weitergehende Beh.;1;1;0;0;0;0;0;0;(null);2441;342;Buschgraben;Elbe;Elbe;52.0419;13.52517903
Lobetal;BB;33404602;5843281;ETRS89_UTM33;3000;113710;weitergehende Beh.;1;1;0;0;0;0;0;0;(null);1706;80;Uppstallfließ;Oder;Oder;52.73097991;13.58721831
Teupitz;BB;33405179;5775646;ETRS89_UTM33;4000;133000;weitergehende Beh.;1;1;0;0;0;0;0;0;(null);843;45;Grundwasser EZG Füchsengraben;Elbe;Elbe;52.12320244;13.61494886
Sonnewalde;BB;33406605;5725452;ETRS89_UTM33;3500;71000;weitergehende Beh.;1;0;0;0;0;0;0;0;(null);475;532;Kleine Elster;Elbe;Elbe;51.67227193;13.6493709
Biesenthal Kirschallee;BB;33408066;5847487;ETRS89_UTM33;3800;135110;weitergehende Beh.;1;1;0;0;0;0;0;0;(null);6746;141;Finow;Oder;Oder;52.76938028;13.63732271
Münchehofe BWB;BB;33408937;5816235;ETRS89_UTM33;286000;14234000;weitergehende Beh.;1;1;0;0;0;0;0;0;(null);242400;8800;Neuenhagener Mühlenfließ;Elbe;Elbe;52.48865003;13.65884528
Großthiemig;BB;33409005;5693856;ETRS89_UTM33;5000;210000;weitergehende Beh.;1;1;0;0;0;0;0;0;(null);924;315;Pulsnitz;Elbe;Elbe;51.38863922;13.6922331
Finsterwalde;BB;33410120;5719414;ETRS89_UTM33;25000;1141000;weitergehende Beh.;1;1;0;0;0;0;0;0;(null);2698;623;Schacke;Elbe;Elbe;51.61856861;13.70174001
Kasel-Golzig;BB;33411556;5753639;ETRS89_UTM33;40000;611000;weitergehende Beh.;1;1;0;0;0;0;0;0;(null);5645;158;Berste;Elbe;Elbe;51.92644653;13.71375929
Lauchhammer;BB;33413773;5702192;ETRS89_UTM33;27000;700000;weitergehende Beh.;1;1;0;0;0;0;0;0;(null);8400;770;Schwarze Elster;Elbe;Elbe;51.4643222;13.75871137
Werneuchen;BB;33414196;5830617;ETRS89_UTM33;15000;468000;weitergehende Beh.;1;1;0;0;0;0;0;0;(null);3042;224;Stienitz;Elbe;Elbe;52.61876668;13.73255783
Gerswalde;BB;33417578;5891025;ETRS89_UTM33;5000;112000;weitergehende Beh.;1;1;0;0;0;0;0;0;(null);1741;135;Stierngraben /Oberueckersee;Oder;Oder;53.16220985;13.76719217
Joachimsthal;BB;33417644;5868752;ETRS89_UTM33;15000;202000;weitergehende Beh.;1;1;0;0;0;0;0;0;(null);1618;29;Grimnitzsee;Oder;Oder;52.96204669;13.77387684
Eberswalde;BB;33421783;5854989;ETRS89_UTM33;80000;3613000;weitergehende Beh.;1;1;0;0;0;0;0;0;(null);33566;3812;Finow-Kanal;Oder;Oder;52.83896816;13.83879633
BASF Schwarzheide;BB;33423476;5704090;ETRS89_UTM33;15000;3006606;weitergehende Beh.;1;1;0;0;0;0;0;0;(null);2894;1273;Pößnitz;Elbe;Elbe;51.48278069;13.89795115
Prenzlau;BB;33423610;5908899;ETRS89_UTM33;80000;1684611;weitergehende Beh.;1;1;0;0;0;0;0;0;(null);277;707;Ucker;Oder;Oder;53.32374775;13.85310675
Rehfelde;BB;33425725;5820099;ETRS89_UTM33;3400;88000;weitergehende Beh.;1;1;0;0;0;0;0;0;(null);670;160;Langer Graben;Elbe;Elbe;52.52592571;13.90517775
Lübben;BB;33426228;5755251;ETRS89_UTM33;50000;885000;weitergehende Beh.;1;1;0;0;0;0;0;0;(null);850;374;A-Graben;Elbe;Elbe;51.94307541;13.92674396
Lübbenau/Spreewald;BB;33426473;5746977;ETRS89_UTM33;26000;1164000;weitergehende Beh.;1;1;0;0;0;0;0;0;(null);3350;1665;Zerkwitzer Kahnfahrt;Elbe;Elbe;51.86872841;13.9320732
Brieske/Senftenberg;BB;33428058;5705257;ETRS89_UTM33;60000;2045000;weitergehende Beh.;1;1;0;0;0;0;0;0;(null);9202;3067;Schwarze Elster;Elbe;Elbe;51.49387379;13.96368831
Storkow;BB;33428271;5792578;ETRS89_UTM33;32900;1051000;weitergehende Beh.;1;1;0;0;0;0;0;0;(null);3322;365;Rieploser Fließ;Elbe;Elbe;52.27888559;13.94859673
Alt-Schadow;BB;33428515;5773464;ETRS89_UTM33;12000;206000;weitergehende Beh.;1;1;0;0;0;0;0;0;(null);574;162;Spree;Elbe;Elbe;52.1070985;13.95620499
Calau;BB;33429040;5733399;ETRS89_UTM33;8000;207000;weitergehende Beh.;1;0;0;0;0;0;0;0;(null);480;2095;Zulaufgraben z. Göritzer Mühlenfließ;Elbe;Elbe;51.74699735;13.97213082
Dürrenhofe/Krugau;BB;33429454;5765323;ETRS89_UTM33;6000;127000;weitergehende Beh.;1;1;0;0;0;0;0;0;(null);1278;89;Gröditscher Landgraben;Elbe;Elbe;52.03403638;13.97159631
Greiffenberg/Günterberg;BB;33431210;5883446;ETRS89_UTM33;2400;42000;weitergehende Beh.;1;0;0;0;0;0;0;0;(null);237;96;L18;Oder;Oder;53.09602707;13.9726761
Angermünde;BB;33431479;5875441;ETRS89_UTM33;16000;514000;weitergehende Beh.;1;1;0;0;0;0;0;0;(null);2786;313;Wolfswinkelgraben;Oder;Oder;53.02411348;13.97839629
Altdöbern;BB;33432493;5723175;ETRS89_UTM33;4000;88000;weitergehende Beh.;1;0;0;0;0;0;0;0;(null);1095;780;Neues Vetschauer Mühlenfließ;Elbe;Elbe;51.6555092;14.02411961
Fürstenwalde;BB;33432531;5803572;ETRS89_UTM33;48000;2066900;weitergehende Beh.;1;1;0;0;0;0;0;0;(null);8869;2409;Rieselfelder/Spree;Elbe;Elbe;52.37825127;14.00882287
Großräschen;BB;33433155;5714518;ETRS89_UTM33;25000;568000;weitergehende Beh.;1;1;0;0;0;0;0;0;(null);5112;908;Rainitza;Elbe;Elbe;51.57775955;14.03533954
Vetschau;BB;33436072;5738911;ETRS89_UTM33;18000;283000;weitergehende Beh.;1;1;0;0;0;0;0;0;(null);1020;355;Neues Vetschauer Mühlenfließ;Elbe;Elbe;51.79739752;14.07296077
Straupitz;BB;33438305;5751477;ETRS89_UTM33;7150;108743;weitergehende Beh.;1;1;0;0;0;0;0;0;(null);314;101;A - Pappelweggraben;Elbe;Elbe;51.91061771;14.10309461
Hohenwutzen;BB;33439158;5855883;ETRS89_UTM33;3500;51100;weitergehende Beh.;1;0;0;0;0;0;0;0;(null);245;160;Oder;Oder;Oder;52.84924646;14.09653751
Passow;BB;33441122;5889052;ETRS89_UTM33;3100;72000;weitergehende Beh.;1;0;0;0;0;0;0;0;(null);1829;396;Holzgraben zur Welse;Oder;Oder;53.14760028;14.1196543
Lunow;BB;33441822;5862242;ETRS89_UTM33;7000;195000;weitergehende Beh.;1;1;0;0;0;0;0;0;(null);193;37;HoFrieWa;Oder;Oder;52.90669931;14.1349544
Burg;BB;33442166;5741784;ETRS89_UTM33;12000;542300;weitergehende Beh.;1;1;0;0;0;0;0;0;(null);760;500;Südumfluter;Elbe;Elbe;51.82389005;14.16084137
Wriezen;BB;33442406;5841914;ETRS89_UTM33;36000;1026696;weitergehende Beh.;1;1;0;0;0;0;0;0;(null);1113;1258;Friedländer Strom;Oder;Oder;52.7240397;14.14722073
Trebatsch;BB;33444251;5772580;ETRS89_UTM33;8000;98000;weitergehende Beh.;1;1;0;0;0;0;0;0;(null);122;85;Spree;Elbe;Elbe;52.10096154;14.18609174
Drebkau;BB;33445194;5724100;ETRS89_UTM33;6000;150800;weitergehende Beh.;1;0;0;0;0;0;0;0;(null);1350;960;Steinitzer Wasser;Elbe;Elbe;51.66520753;14.20755896
Altfriedland;BB;33445938;5834434;ETRS89_UTM33;22500;810660;weitergehende Beh.;1;1;0;0;0;0;0;0;(null);482;271;Friedländer Strom;Oder;Oder;52.65716631;14.20074119
Friedland;BB;33448132;5773616;ETRS89_UTM33;7500;151410;weitergehende Beh.;1;0;0;0;0;0;0;0;(null);117;1441;Grundwasser;Elbe;Elbe;52.1106527;14.24258911
Beeskow;BB;33449255;5783044;ETRS89_UTM33;15500;617000;weitergehende Beh.;1;1;0;0;0;0;0;0;(null);8268;1095;Spree;Elbe;Elbe;52.19551432;14.25757775
Schwedt;BB;33450020;5878637;ETRS89_UTM33;65000;1999000;weitergehende Beh.;1;1;0;0;0;0;0;0;(null);13777;339;Schwedter Landgraben/HoFrieWa;Oder;Oder;53.05489401;14.25430475
Cottbus;BB;33455235;5736034;ETRS89_UTM33;300000;6241000;weitergehende Beh.;1;1;0;0;0;0;0;0;(null);43100;2000;Spree;Elbe;Elbe;51.77339363;14.35119705
Spremberg-Nord;BB;33456490;5714326;ETRS89_UTM33;50000;1499822;weitergehende Beh.;1;1;0;0;0;0;0;0;(null);8802;1250;Spree;Elbe;Elbe;51.57831784;14.37209018
Seelow;BB;33459033;5821602;ETRS89_UTM33;17500;409000;weitergehende Beh.;1;1;0;0;0;0;0;0;(null);491;573;Seelake;Oder;Oder;52.54296003;14.39591449
Peitz;BB;33459623;5744501;ETRS89_UTM33;12000;499000;weitergehende Beh.;1;1;0;0;0;0;0;0;(null);949;584;Hammergraben;Elbe;Elbe;51.8498523;14.41380409
Gartz;BB;33460106;5896591;ETRS89_UTM33;6000;125000;weitergehende Beh.;1;1;0;0;0;0;0;0;(null);954;237;West-Oder;Oder;Oder;53.21712568;14.40254182
Lebus;BB;33468831;5810040;ETRS89_UTM33;4960;105000;weitergehende Beh.;1;1;0;0;0;0;0;0;(null);1612;599;Oder;Oder;Oder;52.43966767;14.54146896
Frankfurt (Oder);BB;33469194;5802101;ETRS89_UTM33;120000;5138200;weitergehende Beh.;1;1;0;0;0;0;0;0;(null);19011;1490;Oder. Strom-km 58;Oder;Oder;52.36831618;14.54753967
Manschnow;BB;33471229;5823360;ETRS89_UTM33;15000;409000;weitergehende Beh.;1;1;0;0;0;0;0;0;(null);2577;614;Manschnower Alte Oder;Oder;Oder;52.55954527;14.57559363
Döbern;BB;33472250;5719172;ETRS89_UTM33;6000;161000;weitergehende Beh.;1;0;0;0;0;0;0;0;(null);356;604;Malxe;Oder;Oder;51.62288628;14.59913776
Forst;BB;33475838;5734523;ETRS89_UTM33;30000;877200;weitergehende Beh.;1;1;0;0;0;0;0;0;(null);4842;1070;Lausitzer Neiße;Oder;Oder;51.76107669;14.64990382
Eisenhüttenstadt;BB;33476132;5774688;ETRS89_UTM33;99000;2133000;weitergehende Beh.;1;1;0;0;0;0;0;0;(null);18488;874;Oder. km 55;Oder;Oder;52.12220811;14.65137548
Haaren;NW;2503041;5662384;GAUSS_KRUEGER_3GS;17370;1041429;weitergehende Beh.;1;1;0;0;0;0;0;0;(null);3720;350;Kitschbach;Maas;Maas;51.09651297;6.04278347
Aachen-Horbach;NW;2504220;5633895;GAUSS_KRUEGER_3GS;24400;2191070;weitergehende Beh.;1;1;0;0;0;0;0;0;(null);41421;765;Amstelbach;Maas;Maas;50.84041654;6.059285
Kirchhoven;NW;2504552;5661087;GAUSS_KRUEGER_3GS;40000;5550676;weitergehende Beh.;1;1;0;0;0;0;0;0;(null);86927;1709;Flutgraben;Maas;Maas;51.08484443;6.06433709
Herzogenrath-Worm;NW;2505789;5638686;GAUSS_KRUEGER_3GS;50000;2656361;weitergehende Beh.;1;1;0;0;0;0;0;0;(null);11164;256;Wurm;Maas;Maas;50.88347044;6.08163528
Steinbusch;NW;2506167;5635045;GAUSS_KRUEGER_3GS;32000;2087412;weitergehende Beh.;1;1;0;0;0;0;0;0;(null);30844;401;Wurm;Maas;Maas;50.85073676;6.08694567
Frelenberg;NW;2507336;5645993;GAUSS_KRUEGER_3GS;53000;2723935;weitergehende Beh.;1;1;0;0;0;0;0;0;(null);16034;1108;Wurm;Maas;Maas;50.94913641;6.10376465
Aachen-Soers;NW;2507387;5630352;GAUSS_KRUEGER_3GS;458000;27180000;weitergehende Beh.;1;1;0;0;0;0;0;0;(null);169652;3145;Wurm;Maas;Maas;50.80853583;6.10417566
Alsdorf-Broichtal;NW;2509419;5636677;GAUSS_KRUEGER_3GS;30000;1078856;weitergehende Beh.;1;1;0;0;0;0;0;0;(null);11772;232;Broicher Bach;Maas;Maas;50.86536343;6.13316608
Wassenberg;NW;2509954;5662469;GAUSS_KRUEGER_3GS;25000;1504090;weitergehende Beh.;1;1;0;0;0;0;0;0;(null);14579;152;Baaler Bach;Maas;Maas;51.09719861;6.14147067
Goch;NW;2510354;5728606;GAUSS_KRUEGER_3GS;121000;2957152;weitergehende Beh.;1;1;0;0;0;0;0;0;(null);3813;386;Niers;Maas;Maas;51.69165441;6.14910985
Niederkrüchten-Overhetfeld;NW;2510420;5677720;GAUSS_KRUEGER_3GS;25000;1675106;weitergehende Beh.;1;1;0;0;0;0;0;0;(null);10261;502;Schwalm;Maas;Maas;51.23427706;6.14856485
Eilendorf;NW;2510551;5628607;GAUSS_KRUEGER_3GS;87000;5610821;weitergehende Beh.;1;1;0;0;0;0;0;0;(null);28267;736;Haarbach;Maas;Maas;50.79280067;6.14901407
Dremmen (1);NW;2511189;5657202;GAUSS_KRUEGER_3GS;11000;1292626;weitergehende Beh.;1;1;0;0;0;0;0;0;(null);4028;459;Wurm;Maas;Maas;51.04983167;6.15893799
Kleve-Salmorth;NW;2511246;5744820;GAUSS_KRUEGER_3GS;165000;6068016;weitergehende Beh.;1;1;0;0;0;0;0;0;(null);35694;3794;Rhein;Rhein;Rhein;51.83736528;6.16253418
Würselen-Euchen;NW;2511639;5634888;GAUSS_KRUEGER_3GS;40000;3041986;weitergehende Beh.;1;1;0;0;0;0;0;1;Fließbettreaktor;6633;746;Euchener Bach;Maas;Maas;50.84924136;6.1646433
Hückelhoven-Ratheim;NW;2511863;5658892;GAUSS_KRUEGER_3GS;95000;3298021;weitergehende Beh.;1;1;0;0;0;0;0;0;(null);52746;857;Mühlenbach Ratheim;Maas;Maas;51.0650093;6.16860517
Flahstrass;NW;2512402;5652271;GAUSS_KRUEGER_3GS;70000;2764240;weitergehende Beh.;1;1;0;0;0;0;0;0;(null);26133;1953;Wurm;Maas;Maas;51.00548252;6.17606785
Arsbeck;NW;2512750;5668149;GAUSS_KRUEGER_3GS;30000;745304;weitergehende Beh.;1;1;0;0;0;0;0;0;(null);7416;187;Rothenbach;Maas;Maas;51.14819939;6.18158559
Brüggen;NW;2512750;5678050;GAUSS_KRUEGER_3GS;16500;579470;weitergehende Beh.;1;1;0;0;0;0;0;0;(null);4712;515;Mühlenbruchgraben;Maas;Maas;51.237196;6.18193703
Aachen-Süd;NW;2513183;5623817;GAUSS_KRUEGER_3GS;36335;5017038;weitergehende Beh.;1;1;0;0;0;0;0;0;(null);46897;2292;Inde;Maas;Maas;50.74968834;6.18617103
Irsental GKA;RP;2514046;5547177;GAUSS_KRUEGER_3GS;2775;263000;Zweitbehandlung;0;0;0;0;0;0;0;0;(null);2340;340;Irsen;Rhein;Rhein;50.06068569;6.19553775
Roetgen;NW;2514541;5613443;GAUSS_KRUEGER_3GS;7050;1804785;weitergehende Beh.;1;1;0;0;0;0;0;0;(null);3630;429;Vichtbach;Maas;Maas;50.65640008;6.20500522
Kalterherberg;NW;2514789;5598747;GAUSS_KRUEGER_3GS;5000;737648;weitergehende Beh.;1;1;1;0;0;0;0;0;(null);5339;130;Rur;Maas;Maas;50.52428324;6.20792816
Bettendorf;NW;2514948;5639294;GAUSS_KRUEGER_3GS;50000;2281278;weitergehende Beh.;1;1;0;0;0;0;0;0;(null);13716;459;Freialdenhovener Fließ;Maas;Maas;50.8887717;6.21180927
Setterich;NW;2515107;5644001;GAUSS_KRUEGER_3GS;50000;2174690;weitergehende Beh.;1;1;0;0;0;0;0;0;(null);16707;837;Gereonsweiler Fließ;Maas;Maas;50.93107909;6.21426348
Geldern-Walbeck;NW;2515250;5706370;GAUSS_KRUEGER_3GS;5900;427136;weitergehende Beh.;1;0;0;0;0;0;0;1;Bodenfilter;1926;2410;Niers;Maas;Maas;51.49168525;6.2189478
Mulartshuette;NW;2515986;5618352;GAUSS_KRUEGER_3GS;3500;360706;weitergehende Beh.;0;0;0;0;0;0;0;1;nachg. Bio. Reinigungsstuffe;2011;555;Vichtbach;Maas;Maas;50.70049135;6.22565129
Kevelaer-Weeze;NW;2516139;5719082;GAUSS_KRUEGER_3GS;49000;2556893;weitergehende Beh.;1;1;0;0;0;0;0;0;(null);26688;962;Niers;Maas;Maas;51.60591672;6.23233078
Siersdorf;NW;2516222;5642287;GAUSS_KRUEGER_3GS;10000;398602;weitergehende Beh.;0;0;0;0;0;0;0;1;nachg. Bio. Reinigungsstuffe;1195;1074;Freialdenhovener Fließ;Maas;Maas;50.91564166;6.23004758
Steinfurt;NW;2516318;5629131;GAUSS_KRUEGER_3GS;120000;19620000;weitergehende Beh.;1;1;0;0;0;0;0;0;(null);85151;1896;Inde;Maas;Maas;50.79737773;6.23082733
Schwalmtal-Amern;NW;2516750;5677930;GAUSS_KRUEGER_3GS;38000;1676596;weitergehende Beh.;1;1;0;0;0;0;0;0;(null);6951;453;Kranenbach;Maas;Maas;51.23601401;6.23920595
Herongen;NW;2516929;5695049;GAUSS_KRUEGER_3GS;50000;471303;weitergehende Beh.;1;1;0;0;0;0;0;0;(null);2526;151;Amandusbach;Maas;Maas;51.38988167;6.24258116
Nette;NW;2517293;5686175;GAUSS_KRUEGER_3GS;86000;4391387;weitergehende Beh.;1;1;0;0;0;0;0;0;(null);28576;560;Nette;Maas;Maas;51.3101079;6.24737944
Konzen;NW;2517519;5605568;GAUSS_KRUEGER_3GS;9700;1903318;weitergehende Beh.;1;1;1;0;0;0;0;0;(null);7350;248;Laufenbach;Maas;Maas;50.58552585;6.24674633
Uedem;NW;2517870;5725674;GAUSS_KRUEGER_3GS;8550;570965;weitergehende Beh.;1;1;0;0;0;0;0;0;(null);5640;159;Uedemer Graben;Maas;Maas;51.66511288;6.2576529
Monschau;NW;2518497;5602194;GAUSS_KRUEGER_3GS;19000;1076870;weitergehende Beh.;1;1;1;0;0;0;0;0;(null);21875;107;Rur;Maas;Maas;50.55516499;6.26038815
Kevelaer-Kervenheim;NW;2518692;5721860;GAUSS_KRUEGER_3GS;2000;116782;weitergehende Beh.;0;1;0;0;0;0;0;0;(null);1026;61;Kervenheimer Mühlenfleuth;Maas;Maas;51.63080627;6.26932961
Emmerich;NW;2518822;5743626;GAUSS_KRUEGER_3GS;195000;5849795;weitergehende Beh.;1;1;0;0;0;0;0;0;(null);15472;2871;Rhein;Rhein;Rhein;51.82643005;6.27238335
Linnich;NW;2518947;5650524;GAUSS_KRUEGER_3GS;29783;1208977;weitergehende Beh.;1;1;0;0;0;0;0;0;(null);6138;1144;Rur;Maas;Maas;50.98960065;6.26922453
Wegberg-Mitte;NW;2519272;5668641;GAUSS_KRUEGER_3GS;46790;2897149;weitergehende Beh.;1;1;0;0;0;0;0;0;(null);37648;326;Schwalm;Maas;Maas;51.1524394;6.27481823
Straelen;NW;2519580;5702170;GAUSS_KRUEGER_3GS;12820;949844;weitergehende Beh.;1;1;0;0;0;0;0;0;(null);4100;252;N.N.;Maas;Maas;51.45380164;6.28105924
Bleialf GKA;RP;2519881;5566143;GAUSS_KRUEGER_3GS;2200;254000;Zweitbehandlung;0;0;0;0;0;0;0;0;(null);2230;380;Alfbach;Rhein;Rhein;50.23102766;6.27801318
Gaytal GKA (Niedersgegen);RP;2520150;5529400;GAUSS_KRUEGER_3GS;3200;582000;Zweitbehandlung;0;0;0;0;0;0;0;0;(null);9720;1690;Gaybach;Rhein;Rhein;49.90068766;6.27985258
Dülken;NW;2520400;5680300;GAUSS_KRUEGER_3GS;72000;2379260;weitergehende Beh.;1;1;0;0;0;0;0;0;(null);9963;649;Nette;Maas;Maas;51.25719798;6.29160239
Aldenhoven;NW;2520496;5641071;GAUSS_KRUEGER_3GS;18000;910377;weitergehende Beh.;1;1;0;0;0;0;0;0;(null);9883;711;Merzbach;Maas;Maas;50.90457527;6.29075426
Simmerath;NW;2520869;5610247;GAUSS_KRUEGER_3GS;14000;2117911;weitergehende Beh.;1;1;0;0;0;0;0;0;(null);4702;453;Kall;Maas;Maas;50.62747759;6.29431081
Erkelenz-Mitte;NW;2521714;5662286;GAUSS_KRUEGER_3GS;48000;3277934;weitergehende Beh.;1;1;0;0;0;0;0;0;(null);62294;1439;Beeckbach;Maas;Maas;51.09522893;6.30933753
Geldern;NW;2521768;5712060;GAUSS_KRUEGER_3GS;135000;3261770;weitergehende Beh.;1;1;0;0;0;0;0;0;(null);25565;1530;Niers;Maas;Maas;51.54261384;6.31314616
Neuerburg (neu);RP;2521967;5540696;GAUSS_KRUEGER_3GS;4300;371000;Zweitbehandlung;0;0;0;0;0;0;0;0;(null);1340;850;Enz;Rhein;Rhein;50.0021802;6.30578647
Wachtendonk;NW;2522610;5697000;GAUSS_KRUEGER_3GS;14000;341373;weitergehende Beh.;1;1;0;0;0;0;0;0;(null);4675;307;N.N.;Maas;Maas;51.40721988;6.32431952
Eschweiler-Weisweiler-ZKA;NW;2523665;5633035;GAUSS_KRUEGER_3GS;160000;8296511;weitergehende Beh.;1;1;0;0;0;0;0;0;(null);61200;3597;Inde;Maas;Maas;50.83221839;6.33528641
Kalkar-Hönnepel;NW;2523713;5735515;GAUSS_KRUEGER_3GS;74000;2773155;weitergehende Beh.;1;1;0;0;0;0;0;0;(null);17653;2207;Rhein;Rhein;Rhein;51.75334512;6.34277096
Jülich;NW;2524200;5644215;GAUSS_KRUEGER_3GS;90000;3921455;weitergehende Beh.;1;1;0;0;0;0;0;0;(null);30735;2343;Rur;Maas;Maas;50.93269319;6.34361962
Mettendorf GKA;RP;2524220;5534000;GAUSS_KRUEGER_3GS;3660;339000;Zweitbehandlung;0;0;0;0;0;0;0;0;(null);4240;750;Enz;Rhein;Rhein;49.94189331;6.33679124
Grefrath;NW;2524711;5690225;GAUSS_KRUEGER_3GS;142600;7084062;weitergehende Beh.;1;1;0;0;0;0;0;0;(null);40928;2105;Niers;Maas;Maas;51.34623694;6.35404306
Sonsbeck;NW;2525019;5719503;GAUSS_KRUEGER_3GS;5250;416263;weitergehende Beh.;1;1;0;0;0;0;0;0;(null);1491;152;Kervenheimer Mühlenfleuth;Maas;Maas;51.60937603;6.36053628
Kueckhoven;NW;2525128;5659600;GAUSS_KRUEGER_3GS;2500;195916;weitergehende Beh.;1;0;0;0;0;0;0;0;(null);1159;421;Kückhover Fließ;Maas;Maas;51.07094598;6.35788439
Oberes Prümtal GKA (Watzerath);RP;2525155;5560601;GAUSS_KRUEGER_3GS;19000;1661000;weitergehende Beh.;1;1;0;0;0;0;0;0;(null);13900;1260;Prüm;Rhein;Rhein;50.18100449;6.35156153
Kapellen;NW;2525263;5714812;GAUSS_KRUEGER_3GS;2300;182485;weitergehende Beh.;0;1;0;0;0;0;0;0;(null);7010;243;Issumer Fleuth;Maas;Maas;51.56720296;6.36372102
Hompesch;NW;2525270;5649439;GAUSS_KRUEGER_3GS;7000;515706;weitergehende Beh.;0;1;0;0;0;0;0;0;(null);1038;207;Malefinkbach;Maas;Maas;50.97960503;6.35920254
Landwehrbach(Kerken);NW;2525430;5702110;GAUSS_KRUEGER_3GS;29000;805584;weitergehende Beh.;1;1;0;0;0;0;0;0;(null);4885;448;Landwehr;Maas;Maas;51.45302984;6.36521382
Langerwehe;NW;2526014;5632012;GAUSS_KRUEGER_3GS;15000;1015360;weitergehende Beh.;1;1;0;0;0;0;0;0;(null);11424;405;Wehebach;Maas;Maas;50.82292188;6.36855605
Waxweiler ZKA;RP;2526283;5550229;GAUSS_KRUEGER_3GS;4000;261000;weitergehende Beh.;1;0;0;0;0;0;0;0;(null);1150;340;Prüm;Rhein;Rhein;50.08771003;6.36663997
Labbeck;NW;2526340;5724678;GAUSS_KRUEGER_3GS;2029;69410;weitergehende Beh.;1;1;0;0;0;0;0;0;(null);5325;33;Hohe Ley;Rhein;Rhein;51.65582773;6.3799943
Einruhr;NW;2527338;5606316;GAUSS_KRUEGER_3GS;2800;256912;weitergehende Beh.;1;1;0;0;0;0;0;0;(null);2517;75;Rur;Maas;Maas;50.59187316;6.38544412
Schophoven;NW;2527589;5638754;GAUSS_KRUEGER_3GS;3000;499396;weitergehende Beh.;0;0;0;0;0;0;0;1;nachg. Bio. Reinigungsstuffe;3163;32;Rur;Maas;Maas;50.88345281;6.3914148
Woffelsbach;NW;2527615;5610849;GAUSS_KRUEGER_3GS;6200;360446;weitergehende Beh.;1;1;0;0;0;0;0;1;Membranbiologie;10526;195;Rur;Maas;Maas;50.63260906;6.38969275
Xanten-Vynen;NW;2528222;5730992;GAUSS_KRUEGER_3GS;4989;260435;weitergehende Beh.;0;1;0;0;0;0;0;1;Nachklärteich;2990;75;Rhein;Rhein;Rhein;51.71248483;6.40769927
Krauthausen;NW;2529144;5638340;GAUSS_KRUEGER_3GS;10000;855628;weitergehende Beh.;1;1;0;0;0;0;0;0;(null);8380;866;Rur;Maas;Maas;50.8796551;6.41347787
Hürtgenwald-Gey;NW;2529673;5624653;GAUSS_KRUEGER_3GS;4000;499396;weitergehende Beh.;0;1;0;0;0;0;0;0;(null);1147;160;Birgeler Bach;Maas;Maas;50.75659553;6.41988812
Schmidt;NW;2530188;5615385;GAUSS_KRUEGER_3GS;6000;243632;weitergehende Beh.;1;1;0;0;0;0;0;0;(null);475;30;Sollerbach;Maas;Maas;50.67325714;6.42642862
Oberweis GKA;RP;2530260;5535496;GAUSS_KRUEGER_3GS;4700;261000;Zweitbehandlung;0;0;0;0;0;0;0;0;(null);1640;780;Prüm;Rhein;Rhein;49.95506797;6.42105058
Wincheringen GKA;RP;2530300;5497720;GAUSS_KRUEGER_3GS;4000;391000;weitergehende Beh.;1;0;0;0;0;0;0;0;(null);2070;430;Mosel;Rhein;Rhein;49.61543742;6.41866862
Rees-Haffen;NW;2530443;5733485;GAUSS_KRUEGER_3GS;3300;247717;weitergehende Beh.;1;1;0;0;0;0;0;0;(null);3683;1161;Bislicher Ley;Rhein;Rhein;51.73477484;6.44005031
Isselburg;NW;2530602;5745185;GAUSS_KRUEGER_3GS;14000;806119;weitergehende Beh.;1;1;0;0;0;0;0;0;(null);12162;1170;Issel;Rhein;Rhein;51.83992027;6.44338357
Hambach;NW;2530663;5640774;GAUSS_KRUEGER_3GS;12000;1170652;weitergehende Beh.;1;1;0;0;0;0;0;0;(null);8261;608;Ellebach;Maas;Maas;50.90145545;6.43526464
Welldorf-Guesten;NW;2530747;5647008;GAUSS_KRUEGER_3GS;3000;154651;weitergehende Beh.;0;0;0;0;0;0;0;1;nachg. Bio. Reinigungsstuffe;5011;350;Finkelbach;Rhein;Rhein;50.95748713;6.4369842
Düren;NW;2531157;5634026;GAUSS_KRUEGER_3GS;461500;22670000;weitergehende Beh.;1;1;0;0;0;0;0;0;(null);79982;2775;Rur;Maas;Maas;50.84077199;6.44171263
Nittel;RP;2531801;5501647;GAUSS_KRUEGER_3GS;3880;148000;weitergehende Beh.;1;1;0;0;0;0;0;0;(null);1180;340;Mosel;Rhein;Rhein;49.65066721;6.43975664
Am Erzberg GKA (Wiersdorf);RP;2531874;5541180;GAUSS_KRUEGER_3GS;2800;191000;weitergehende Beh.;1;0;0;0;0;0;0;0;(null);800;530;Prüm;Rhein;Rhein;50.00608489;6.44401138
Mönchengladbach GWK I;NW;2532466;5678796;GAUSS_KRUEGER_3GS;750000;44010000;weitergehende Beh.;1;1;0;0;0;0;0;1;Nierssee . V=1800000 cbm;240012;11777;Niers;Maas;Maas;51.24312039;6.46430593
Xanten-Lüttingen;NW;2532659;5726003;GAUSS_KRUEGER_3GS;22000;1376760;weitergehende Beh.;1;1;0;0;0;0;0;0;(null);10304;1126;Rhein;Rhein;Rhein;51.66740469;6.47142635
Oberes Nimstal GKA (Schönecken);RP;2532952;5557225;GAUSS_KRUEGER_3GS;5800;636000;weitergehende Beh.;1;1;0;0;0;0;0;0;(null);4900;300;Nims;Rhein;Rhein;50.15027258;6.46042863
Irrel;RP;2533032;5522972;GAUSS_KRUEGER_3GS;4000;212000;Zweitbehandlung;0;0;0;0;0;0;0;0;(null);3650;380;Prüm;Rhein;Rhein;49.84232576;6.45860762
Heimbach;NW;2533193;5611896;GAUSS_KRUEGER_3GS;11000;504186;weitergehende Beh.;1;1;0;0;0;0;0;0;(null);2026;333;Rur;Maas;Maas;50.64173032;6.46862477
Rheurdt;NW;2533247;5704086;GAUSS_KRUEGER_3GS;2700;173787;weitergehende Beh.;1;1;0;0;0;0;0;0;(null);937;158;Nenneper Fleuth;Maas;Maas;51.47038497;6.47785243
Hausen-Blens;NW;2533249;5613818;GAUSS_KRUEGER_3GS;2500;97622;weitergehende Beh.;1;1;0;0;0;0;0;0;(null);550;8;Rur;Maas;Maas;50.65900448;6.46958882
Schleiden-Gemünd;NW;2533506;5604515;GAUSS_KRUEGER_3GS;23000;1231449;weitergehende Beh.;1;1;0;0;0;0;0;0;(null);11524;133;Urft;Maas;Maas;50.57536241;6.47238398
Roedingen;NW;2533703;5647199;GAUSS_KRUEGER_3GS;3000;179613;weitergehende Beh.;1;1;0;0;0;0;0;0;(null);958;38;Finkelbach;Rhein;Rhein;50.95903874;6.47907209
Rheurdt Schaephuysen;NW;2534098;5701039;GAUSS_KRUEGER_3GS;2500;88773;weitergehende Beh.;1;1;0;0;0;0;0;0;(null);716;34;Nenneper Fleuth;Maas;Maas;51.44294809;6.4898056
Untere Nims GKA (Messerich);RP;2534204;5532421;GAUSS_KRUEGER_3GS;3045;229000;weitergehende Beh.;1;0;0;0;0;0;0;0;(null);1050;660;Nims;Rhein;Rhein;49.92721023;6.47573562
Weinsheim (Industriegebiet);RP;2534344;5565443;GAUSS_KRUEGER_3GS;2600;310000;Zweitbehandlung;0;0;0;0;0;0;0;0;(null);4670;540;Nims;Rhein;Rhein;50.22407283;6.48064549
Schleiden;NW;2534837;5600426;GAUSS_KRUEGER_3GS;32000;3493661;weitergehende Beh.;1;1;0;0;0;0;0;0;(null);32197;347;Olef;Maas;Maas;50.53852727;6.49079102
Tönisberg;NW;2534970;5698520;GAUSS_KRUEGER_3GS;6400;165934;weitergehende Beh.;0;1;0;0;0;0;0;0;(null);647;78;Nenneper Fleuth;Maas;Maas;51.42025427;6.50209847
Bitburg St. Stahl;RP;2535500;5535933;GAUSS_KRUEGER_3GS;7100;410000;weitergehende Beh.;1;1;0;0;0;0;0;0;(null);1640;780;Nims;Rhein;Rhein;49.95870861;6.49410737
Kronenburg;NW;2535671;5580717;GAUSS_KRUEGER_3GS;8000;1126734;weitergehende Beh.;1;1;0;0;0;0;0;0;(null);1723;149;Kyll;Rhein;Rhein;50.36130344;6.50068008
Bitburg-Nord GKA ( Nattenheim );RP;2536155;5542867;GAUSS_KRUEGER_3GS;3285;149000;weitergehende Beh.;1;0;0;0;0;0;0;0;(null);590;520;Nims;Rhein;Rhein;50.0210073;6.50388644
Kamp-Lintfort;NW;2536595;5707797;GAUSS_KRUEGER_3GS;75000;2411057;weitergehende Beh.;1;1;0;0;0;0;0;0;(null);19296;1359;Große Goorley;Rhein;Rhein;51.50353222;6.52641796
Bocholt-Mussum;NW;2537110;5742578;GAUSS_KRUEGER_3GS;225000;9099317;weitergehende Beh.;1;1;0;0;0;0;0;1;Bio-P;35709;1755;Alte Aa;Rhein;Rhein;51.81609568;6.53752563
KA WEITEN;SL;2537970;5488154;GAUSS_KRUEGER_3GS;3000;294124;Zweitbehandlung;0;0;0;0;0;0;0;0;(null);2798;597;SCHENKELBACH;Rhein;Rhein;49.5289988;6.52387865
KA ORSCHOLZ;SL;2538923;5484986;GAUSS_KRUEGER_3GS;6500;610197;weitergehende Beh.;1;1;0;0;0;0;0;0;(null);16475;1199;Bornbach;Rhein;Rhein;49.5004554;6.53673017
Kall;NW;2538931;5601660;GAUSS_KRUEGER_3GS;11500;1522265;weitergehende Beh.;1;1;0;0;0;0;0;0;(null);4325;241;Urft;Maas;Maas;50.5493622;6.54866769
Trierweiler GKA;RP;2538980;5513294;GAUSS_KRUEGER_3GS;3700;432000;Zweitbehandlung;0;0;0;0;0;0;0;0;(null);5220;1120;Stegbach;Rhein;Rhein;49.75495972;6.54032666
Dahlem;NW;2539106;5582509;GAUSS_KRUEGER_3GS;4700;1166604;weitergehende Beh.;1;1;0;0;0;0;0;0;(null);2972;302;Glaadtbach;Rhein;Rhein;50.37719476;6.54913782
Bitburg (Ost);RP;2539110;5537619;GAUSS_KRUEGER_3GS;25000;1367000;weitergehende Beh.;1;1;0;0;0;0;0;0;(null);9570;1230;Albach;Rhein;Rhein;49.9736407;6.54458513
Kaarst- Nordkanal;NW;2539340;5677000;GAUSS_KRUEGER_3GS;80000;5664322;weitergehende Beh.;1;1;0;0;0;0;0;0;(null);36555;2405;Nordkanal;Rhein;Rhein;51.22654522;6.56254389
Elsdorf Niederembt;NW;2539449;5648358;GAUSS_KRUEGER_3GS;4000;217858;weitergehende Beh.;1;1;0;0;0;0;0;0;(null);4252;51;Finkelbach;Rhein;Rhein;50.96909211;6.56097727
Glehn;NW;2539910;5671210;GAUSS_KRUEGER_3GS;34000;1839099;weitergehende Beh.;1;1;0;0;0;0;0;0;(null);21931;973;Jüchener Bach;Rhein;Rhein;51.17446382;6.57006004
Marmagen;NW;2540264;5594342;GAUSS_KRUEGER_3GS;4500;475003;weitergehende Beh.;1;1;0;0;0;0;0;0;(null);993;790;Gillesbach;Maas;Maas;50.48348847;6.56668583
Urft-Nettersheim;NW;2540474;5597636;GAUSS_KRUEGER_3GS;14650;1317206;weitergehende Beh.;1;1;0;0;0;0;0;0;(null);7303;130;Urft;Maas;Maas;50.5130848;6.57000106
Bedburg Kaster;NW;2540615;5652885;GAUSS_KRUEGER_3GS;50500;4004477;weitergehende Beh.;1;1;0;0;0;0;0;0;(null);36177;1409;Erft;Rhein;Rhein;51.00970217;6.57808157
Saarmündung GKA (Konz);RP;2540923;5507105;GAUSS_KRUEGER_3GS;50400;2449000;weitergehende Beh.;1;1;0;0;0;0;0;0;(null);20800;2200;Saar;Rhein;Rhein;49.69918865;6.56664112
Elsdorf;NW;2541104;5646586;GAUSS_KRUEGER_3GS;20400;928983;weitergehende Beh.;1;1;0;0;0;0;0;0;(null);10546;267;Elsdorfer Fließ;Rhein;Rhein;50.9530488;6.58433683
Hamminkeln;NW;2541129;5736214;GAUSS_KRUEGER_3GS;39000;2207114;weitergehende Beh.;1;1;0;0;0;0;0;0;(null);11838;517;Issel;Rhein;Rhein;51.75861916;6.59504982
Rheinberg;NW;2541153;5715137;GAUSS_KRUEGER_3GS;83000;3083869;weitergehende Beh.;1;1;0;0;0;0;0;0;(null);27512;1108;Moersbach;Rhein;Rhein;51.5691881;6.59291652
Saarburg GKA (Ayl);RP;2541496;5498932;GAUSS_KRUEGER_3GS;36474;2547000;weitergehende Beh.;1;1;0;0;0;0;0;0;(null);18300;2550;Saar;Rhein;Rhein;49.6256696;6.57371825
Nideggen-Embken;NW;2541637;5616659;GAUSS_KRUEGER_3GS;6500;754447;weitergehende Beh.;1;1;0;0;0;0;0;0;(null);5289;606;Neffelbach;Rhein;Rhein;50.6840037;6.58852699
Kyllburg GKA (Malberg);RP;2541863;5545445;GAUSS_KRUEGER_3GS;7250;345000;weitergehende Beh.;1;0;0;0;0;0;0;0;(null);1520;1140;Kyll;Rhein;Rhein;50.0438101;6.58381277
Wesel;NW;2541933;5724805;GAUSS_KRUEGER_3GS;98000;6152017;weitergehende Beh.;1;1;0;0;0;0;0;0;(null);35858;2201;Rhein;Rhein;Rhein;51.65602217;6.60532169
Grevenbroich;NW;2541971;5663935;GAUSS_KRUEGER_3GS;97000;3445180;weitergehende Beh.;1;1;0;0;0;0;0;0;(null);32907;2544;Wevelinghovener Entwässerungsgrabe;Rhein;Rhein;51.10892669;6.59868227
Mechernich-Glehn;NW;2542591;5607923;GAUSS_KRUEGER_3GS;2500;281963;weitergehende Beh.;0;1;0;0;0;0;0;0;(null);1661;244;Rotbach;Rhein;Rhein;50.60540634;6.6010216
Wiltingen GKA;RP;2542597;5503474;GAUSS_KRUEGER_3GS;4900;246000;weitergehende Beh.;1;1;0;0;0;0;0;0;(null);2700;250;Saar;Rhein;Rhein;49.66642818;6.58944924
KA SAARHÖLZBACH;SL;2542977;5485550;GAUSS_KRUEGER_3GS;8500;1983946;weitergehende Beh.;0;0;0;0;0;0;0;0;nur Nitrifikation;8233;2844;Saar;Rhein;Rhein;49.50525284;6.59275558
Vettweiss;NW;2542991;5623684;GAUSS_KRUEGER_3GS;2620;228663;weitergehende Beh.;1;1;0;0;0;0;0;0;(null);3653;342;Mersheimer Graben;Rhein;Rhein;50.74705245;6.60850252
Wevelinghoven;NW;2544300;5665550;GAUSS_KRUEGER_3GS;27000;1744477;weitergehende Beh.;1;1;0;0;0;0;0;0;(null);30772;1654;Erft;Rhein;Rhein;51.12326761;6.63213432
Obere Kyll GKA (Lissendorf);RP;2544420;5575213;GAUSS_KRUEGER_3GS;27000;1294000;weitergehende Beh.;1;1;0;0;0;0;0;0;(null);10700;920;Kyll;Rhein;Rhein;50.31123084;6.62297988
Birresborn GKA;RP;2544500;5559458;GAUSS_KRUEGER_3GS;5300;571000;weitergehende Beh.;1;0;0;0;0;0;0;0;(null);2420;980;Kyll;Rhein;Rhein;50.16959342;6.62225543
Krefeld;NW;2544556;5694208;GAUSS_KRUEGER_3GS;1200000;30260000;weitergehende Beh.;1;1;0;0;0;0;0;0;(null);71104;4225;Rhein;Rhein;Rhein;51.38082678;6.63935614
Speicher;RP;2544635;5532634;GAUSS_KRUEGER_3GS;6500;376000;weitergehende Beh.;1;1;0;0;0;0;0;0;(null);2030;350;Weilerbach;Rhein;Rhein;49.92843794;6.62102396
Mittlere Kyll GKA (Auw);RP;2544880;5529920;GAUSS_KRUEGER_3GS;3870;324000;weitergehende Beh.;1;1;0;0;0;0;0;0;(null);1190;320;Kyll;Rhein;Rhein;49.90402047;6.62412076
Noervenich;NW;2545152;5631184;GAUSS_KRUEGER_3GS;15500;902960;weitergehende Beh.;1;1;0;0;0;0;0;0;(null);3240;671;Neffelbach;Rhein;Rhein;50.81430413;6.64003977
KA MERZIG;SL;2545291;5480069;GAUSS_KRUEGER_3GS;56500;7605005;weitergehende Beh.;1;1;0;0;0;0;0;0;(null);49623;10457;Saar;Rhein;Rhein;49.45580622;6.62407543
Gerolstein GKA (Lissingen);RP;2545310;5564140;GAUSS_KRUEGER_3GS;22500;1421000;weitergehende Beh.;1;1;0;0;0;0;0;0;(null);6890;1750;Kyll;Rhein;Rhein;50.21162177;6.63414994
Bergheim Kenten;NW;2546037;5645158;GAUSS_KRUEGER_3GS;120000;7685546;weitergehende Beh.;1;1;0;0;0;0;0;0;(null);75322;4255;Erft;Rhein;Rhein;50.93984072;6.65435476
KA MECHERN;SL;2546075;5476045;GAUSS_KRUEGER_3GS;2000;259488;Zweitbehandlung;0;0;0;0;0;0;0;0;(null);2327;1089;Mecherner Dorfbach;Rhein;Rhein;49.41956826;6.63442116
Moers-Gerdt;NW;2546257;5704375;GAUSS_KRUEGER_3GS;250000;9105386;weitergehende Beh.;1;1;0;0;0;0;0;0;(null);47084;3144;Rhein;Rhein;Rhein;51.47206864;6.66511351
Kordel;RP;2546317;5522190;GAUSS_KRUEGER_3GS;8500;409000;weitergehende Beh.;1;0;0;0;0;0;0;0;(null);1760;1110;Kyll;Rhein;Rhein;49.83441718;6.64319898
Voerde;NW;2546341;5717853;GAUSS_KRUEGER_3GS;25000;1098141;weitergehende Beh.;1;1;0;0;0;0;0;0;(null);14451;880;Mommbach;Rhein;Rhein;51.59319556;6.6680952
Dudeldorf GKA;RP;2546405;5536882;GAUSS_KRUEGER_3GS;3660;171000;weitergehende Beh.;1;0;0;0;0;0;0;0;(null);1090;340;Langebach (Wolfskaulbach);Rhein;Rhein;49.96649284;6.64618458
Bessenich;NW;2546434;5620871;GAUSS_KRUEGER_3GS;27000;1230054;weitergehende Beh.;1;1;0;0;0;0;0;0;(null);5155;225;Neffelbach;Rhein;Rhein;50.72150204;6.65692794
Bergheim Auenheim;NW;2546588;5651857;GAUSS_KRUEGER_3GS;23000;1466926;weitergehende Beh.;1;1;0;0;0;0;0;0;(null);10741;1241;Gillbach;Rhein;Rhein;51.00000983;6.66305103
Blankenheim;NW;2546892;5588693;GAUSS_KRUEGER_3GS;4500;494388;weitergehende Beh.;1;1;0;0;0;0;0;0;(null);6416;309;Ahr;Rhein;Rhein;50.43221612;6.65935982
Villau;NW;2546900;5662640;GAUSS_KRUEGER_3GS;5000;370159;weitergehende Beh.;1;1;0;0;0;0;0;0;(null);2367;190;Gillbach;Rhein;Rhein;51.09690519;6.66889092
Hillesheim GKA ( Dohm - Lammersdorf );RP;2546951;5570271;GAUSS_KRUEGER_3GS;19000;976000;weitergehende Beh.;1;1;0;0;0;0;0;0;(null);7620;490;Kyll;Rhein;Rhein;50.26660894;6.65789654
Rhede;NW;2547394;5743967;GAUSS_KRUEGER_3GS;43000;1526886;weitergehende Beh.;1;1;0;0;0;0;0;0;(null);10590;1329;Rheder Bach;Rhein;Rhein;51.82780134;6.68683895
Mechernich;NW;2547956;5606852;GAUSS_KRUEGER_3GS;24000;1531380;weitergehende Beh.;1;1;0;0;0;0;0;0;(null);1664;373;Veybach;Rhein;Rhein;50.59536338;6.6766649
Düsseldorf-Nord;NW;2548230;5682817;GAUSS_KRUEGER_3GS;600000;33230000;weitergehende Beh.;1;1;0;0;0;0;0;0;(null);184064;12531;Rhein;Rhein;Rhein;51.27814656;6.6905827
KA REHLINGEN;SL;2548368;5472488;GAUSS_KRUEGER_3GS;25000;5006199;weitergehende Beh.;1;1;0;0;0;0;0;0;(null);46683;4606;Nied;Rhein;Rhein;49.38741011;6.66559004
Beilingen-Herforst GKA (Beilingen);RP;2548479;5535430;GAUSS_KRUEGER_3GS;2650;199000;Zweitbehandlung;0;0;0;0;0;0;0;0;(null);1870;320;Weidesbach;Rhein;Rhein;49.95327474;6.67490788
4570022019 KA Borkum;NI;2548500;5939350;GAUSS_KRUEGER_3GS;45000;1417953;weitergehende Beh.;1;1;0;0;0;0;0;0;(null);4821;1020.92616;Nordsee;Ems;Ems;53.58334191;6.73172225
Huengersdorf;NW;2548587;5585524;GAUSS_KRUEGER_3GS;2200;210097;weitergehende Beh.;0;0;0;0;0;0;0;1;Tropfkörper;3875;592;Borbach;Rhein;Rhein;50.40359155;6.68280451
Wissersheim;NW;2549179;5632053;GAUSS_KRUEGER_3GS;3000;172450;weitergehende Beh.;0;1;0;0;0;0;0;0;(null);492;149;Wissersheimer Fließ;Rhein;Rhein;50.82178752;6.69729133
Duisburg-Vierlinden;NW;2549395;5712810;GAUSS_KRUEGER_3GS;34000;1573569;weitergehende Beh.;1;1;0;0;0;0;0;0;(null);18417;1470;Brusbach;Rhein;Rhein;51.54761289;6.71145362
Neuss-Süd;NW;2549440;5670480;GAUSS_KRUEGER_3GS;76835;4855474;weitergehende Beh.;1;1;0;0;0;0;0;0;(null);31326;1630;Erft;Rhein;Rhein;51.16715862;6.7062222
Trier  Hauptklärwerk;RP;2549500;5515500;GAUSS_KRUEGER_3GS;170000;8014000;weitergehende Beh.;1;1;0;0;0;0;0;0;(null);93300;4000;Mosel;Rhein;Rhein;49.77401891;6.68658885
Duisburg-Rheinhausen;NW;2549596;5699302;GAUSS_KRUEGER_3GS;220000;10090000;weitergehende Beh.;1;1;0;0;0;0;0;0;(null);92708;2420;Rhein;Rhein;Rhein;51.42619205;6.71245449
Dinslaken;NW;2549801;5715501;GAUSS_KRUEGER_3GS;65000;3936490;weitergehende Beh.;1;1;0;0;0;0;0;0;(null);37057;4133;Rotbach;Rhein;Rhein;51.57176228;6.71768701
Obergartzem-Enzen;NW;2550063;5613520;GAUSS_KRUEGER_3GS;20000;1459972;weitergehende Beh.;0;1;0;0;0;0;0;1;Lamellenseparator;15134;493;Bleibach;Rhein;Rhein;50.65512449;6.70731931
4564042009 KA Wielen;NI;2550130;5824800;GAUSS_KRUEGER_3GS;16000;512708;weitergehende Beh.;1;1;0;0;0;0;0;0;(null);514.941942;162.3575333;GRABEN 1.02.00;Rhein;Rhein;52.55395902;6.73848674
Duisburg-Alte Emscher;NW;2550198;5706570;GAUSS_KRUEGER_3GS;500000;56790000;weitergehende Beh.;1;1;0;0;0;0;0;0;(null);221988;15768;Alte Emscher;Rhein;Rhein;51.49146048;6.72214031
Anstel;NW;2550240;5659200;GAUSS_KRUEGER_3GS;12000;817201;weitergehende Beh.;1;1;0;0;0;0;0;0;(null);9917;663;Gillbach;Rhein;Rhein;51.06570335;6.71608907
Neuss-Ost;NW;2550380;5674620;GAUSS_KRUEGER_3GS;280000;11590000;weitergehende Beh.;1;1;0;0;0;0;0;0;(null);24327;2707;Rhein;Rhein;Rhein;51.20428688;6.72024042
Trier-Ehrang;RP;2550560;5520120;GAUSS_KRUEGER_3GS;24000;1065000;weitergehende Beh.;1;1;0;0;0;0;0;0;(null);8620;1060;Mosel;Rhein;Rhein;49.81546525;6.70190397
KA DILLINGEN;SL;2550849;5470156;GAUSS_KRUEGER_3GS;38000;4932664;weitergehende Beh.;1;1;0;0;0;0;0;0;(null);54753;3669;Haienbach;Rhein;Rhein;49.36624169;6.69946226
Duisburg-Kasslerfeld;NW;2550912;5701270;GAUSS_KRUEGER_3GS;450000;40940000;weitergehende Beh.;1;1;0;0;0;0;0;0;(null);183163;11460;Ruhr;Rhein;Rhein;51.44376292;6.73165681
Duisburg-Huckingen;NW;2551620;5693514;GAUSS_KRUEGER_3GS;135615;8139360;weitergehende Beh.;1;1;0;0;0;0;0;0;(null);92735;2738;Anger;Rhein;Rhein;51.37399124;6.74071102
Düsseldorf-Süd;NW;2551698;5673500;GAUSS_KRUEGER_3GS;1090000;37200000;weitergehende Beh.;1;1;0;0;0;0;0;1;Schwimmschlammbecken vor NK. 550 m?;80128;4191;Rhein;Rhein;Rhein;51.19410274;6.73893629
Unteres Ruwertal GKA (Mertesdorf);RP;2551736;5515664;GAUSS_KRUEGER_3GS;30500;2502000;weitergehende Beh.;1;1;0;0;0;0;0;0;(null);34000;2250;Ruwer;Rhein;Rhein;49.77530515;6.71765047
KA ÜBERHERRN;SL;2552131;5457255;GAUSS_KRUEGER_3GS;18000;1259782;weitergehende Beh.;1;1;0;0;0;0;0;0;(null);10062;1058;Bist;Rhein;Rhein;49.25014227;6.71542873
Duisburg-Hochfeld;NW;2552183;5697470;GAUSS_KRUEGER_3GS;92000;5617960;weitergehende Beh.;1;1;0;0;0;0;0;0;(null);24419;1844;Rhein;Rhein;Rhein;51.4094947;6.74937695
Freilingen;NW;2552229;5585577;GAUSS_KRUEGER_3GS;5000;604613;weitergehende Beh.;0;0;0;0;0;0;0;1;nachg. Bio. Reinigungsstuffe;4743;168;Mühlenbach;Rhein;Rhein;50.4037559;6.73403637
Huenxe;NW;2552511;5724603;GAUSS_KRUEGER_3GS;15000;1037497;weitergehende Beh.;1;1;0;0;0;0;0;0;(null);6992;720;Langefortsbach;Rhein;Rhein;51.65331847;6.75813445
Kerpen GKA;RP;2552685;5575332;GAUSS_KRUEGER_3GS;2500;230000;weitergehende Beh.;1;1;0;0;0;0;0;0;(null);1520;180;Rudersbach;Rhein;Rhein;50.3116207;6.73901787
Bergheim Fliesteden;NW;2552771;5651560;GAUSS_KRUEGER_3GS;2500;207173;weitergehende Beh.;1;1;0;0;0;0;0;0;(null);848;199;Fliestedener Graben;Rhein;Rhein;50.99680707;6.75108117
Vreden;NW;2553183;5769310;GAUSS_KRUEGER_3GS;33000;2032350;weitergehende Beh.;1;1;0;0;0;0;0;0;(null);15692;1582;Berkel;Rhein;Rhein;52.05503077;6.77472313
Bergheim Glessen;NW;2553439;5648901;GAUSS_KRUEGER_3GS;5000;678473;weitergehende Beh.;0;1;0;0;0;0;0;0;(null);3637;492;Pulheimer Bach;Rhein;Rhein;50.97284589;6.760205
KA SAARLOUIS;SL;2553648;5465942;GAUSS_KRUEGER_3GS;93000;7344188;weitergehende Beh.;1;1;0;0;0;0;0;0;(null);45534;6353;Saar;Rhein;Rhein;49.32811489;6.73742833
Emscherkläranlage;NW;2553896;5711529;GAUSS_KRUEGER_3GS;2400000;462000000;weitergehende Beh.;1;1;0;0;0;0;0;0;(null);2476782;178100;Emscher;Rhein;Rhein;51.53568848;6.77613794
Oberes Ruwertal GKA (Mandern);RP;2554560;5497548;GAUSS_KRUEGER_3GS;9640;998000;Zweitbehandlung;0;0;0;0;0;0;0;0;(null);10900;1900;Ruwer;Rhein;Rhein;49.61218932;6.75432723
Kailbachtal GKA (Landscheid);RP;2554583;5538351;GAUSS_KRUEGER_3GS;5660;405000;weitergehende Beh.;1;0;0;0;0;0;0;0;(null);1860;730;Kailbach;Rhein;Rhein;49.97900756;6.76037003
Raesfeld;NW;2554924;5735448;GAUSS_KRUEGER_3GS;10000;667122;weitergehende Beh.;1;1;0;0;0;0;0;1;mit Regenrückhaltebecken ;3035;510;Löchter Mühlenbach;Rhein;Rhein;51.75055249;6.79470508
KA DÜPPENWEILER;SL;2554932;5475010;GAUSS_KRUEGER_3GS;3500;456836;Zweitbehandlung;0;0;0;0;0;0;0;0;(null);5391;1191;Kondeler Bach;Rhein;Rhein;49.40952845;6.75634132
Dockweiler-Dreis-Brück GKA (Oberehe);RP;2555320;5571010;GAUSS_KRUEGER_3GS;5300;533000;Zweitbehandlung;1;0;0;0;0;0;0;0;(null);2800;900;Ahbach;Rhein;Rhein;50.27252805;6.77537505
KA LAUTERBACH;SL;2555330;5450590;GAUSS_KRUEGER_3GS;3000;239050;weitergehende Beh.;0;1;0;0;0;0;0;0;(null);2277;154;Lauterbach;Rhein;Rhein;49.18993722;6.75844666
Erftstadt;NW;2555855;5633298;GAUSS_KRUEGER_3GS;70000;4995660;weitergehende Beh.;1;1;0;0;0;0;0;0;(null);66826;3520;Erft;Rhein;Rhein;50.83237307;6.79221346
Großlittgen GKA;RP;2556063;5542278;GAUSS_KRUEGER_3GS;2560;297000;weitergehende Beh.;1;0;0;0;0;0;0;0;(null);1450;480;Salm;Rhein;Rhein;50.01417288;6.78157434
KA ENSDORF;SL;2556140;5460740;GAUSS_KRUEGER_3GS;58000;5578059;weitergehende Beh.;1;1;0;0;0;0;0;0;(null);42951;5655;Saar;Rhein;Rhein;49.28112103;6.77097761
Ratingen;NW;2556207;5685983;GAUSS_KRUEGER_3GS;80000;6509309;weitergehende Beh.;1;1;0;0;0;0;0;0;(null);46009;4397;Anger;Rhein;Rhein;51.30587066;6.80539209
Bad Muenstereifel-Kirspen.Mia;NW;2556268;5608143;GAUSS_KRUEGER_3GS;20000;2786475;weitergehende Beh.;1;1;0;0;0;0;0;0;(null);15760;431;Erft;Rhein;Rhein;50.6062265;6.79424105
Schweich GKA (Riol);RP;2556372;5518506;GAUSS_KRUEGER_3GS;39320;2381000;weitergehende Beh.;1;1;0;0;0;0;0;0;(null);19100;1430;Mosel;Rhein;Rhein;49.80043809;6.78241923
Kessenich;NW;2556683;5617387;GAUSS_KRUEGER_3GS;132000;8862501;weitergehende Beh.;1;1;0;0;0;0;0;0;(null);69535;2208;Erft;Rhein;Rhein;50.68927729;6.80151619
KA NIEDERLOSHEIM;SL;2556985;5485218;GAUSS_KRUEGER_3GS;13000;1740764;Zweitbehandlung;0;0;0;0;0;0;0;0;(null);36755;4285;Losheimer Bach;Rhein;Rhein;49.50111491;6.78609601
Köln Weiden;NW;2557054;5645223;GAUSS_KRUEGER_3GS;80000;3958590;weitergehende Beh.;1;1;0;0;0;0;0;1;Klarwassernitrifikation Linpor;47553;2134;Rheinkanal 1;Rhein;Rhein;50.93944115;6.8110917
KA SAARWELLINGEN;SL;2557292;5467841;GAUSS_KRUEGER_3GS;14000;1941790;weitergehende Beh.;1;1;0;0;0;0;0;0;(null);11984;1669;Ellbach;Rhein;Rhein;49.34485734;6.78782731
Borken;NW;2557324;5746750;GAUSS_KRUEGER_3GS;130100;6195715;weitergehende Beh.;1;1;0;0;0;0;0;0;(null);42284;1614;Bocholter Aa;Rhein;Rhein;51.8518811;6.83132255
Pulheim;NW;2557476;5653629;GAUSS_KRUEGER_3GS;80000;3932725;weitergehende Beh.;1;1;0;0;0;0;0;0;(null);24739;3649;Kölner Randkanal;Rhein;Rhein;51.01495308;6.81842277
KA RAPPWEILER;SL;2558003;5489013;GAUSS_KRUEGER_3GS;2150;443644;Zweitbehandlung;0;0;0;0;0;0;0;0;(null);6566;869;Hölzbach;Rhein;Rhein;49.53513697;6.80070597
Zentralklärwerk Südlohn;NW;2558291;5755895;GAUSS_KRUEGER_3GS;15000;1338686;weitergehende Beh.;1;1;0;0;0;0;0;0;(null);4403;294;Schlinge;Rhein;Rhein;51.93396373;6.84690072
Manderscheid GKA;RP;2558584;5550418;GAUSS_KRUEGER_3GS;4000;279000;weitergehende Beh.;1;0;0;0;0;0;0;0;(null);2150;380;Lieser;Rhein;Rhein;50.08710524;6.81798726
Frechen;NW;2558745;5642168;GAUSS_KRUEGER_3GS;56100;3843493;weitergehende Beh.;1;1;0;0;0;0;0;0;(null);38378;3126;Frechener Bach;Rhein;Rhein;50.91181282;6.8346554
Daun GKA (Gemünden);RP;2558835;5559973;GAUSS_KRUEGER_3GS;22500;1947000;weitergehende Beh.;1;1;0;0;0;0;0;0;(null);14200;2300;Lieser;Rhein;Rhein;50.17297413;6.82296666
4564012018 KA Emlichheim;NI;2558880;5832150;GAUSS_KRUEGER_3GS;12500;318716;weitergehende Beh.;1;1;0;0;0;0;0;0;(null);371.5226881;61.35283;Bermegraben;Rhein;Rhein;52.61912604;6.8687842
Ratingen-Breitscheid;NW;2559187;5691388;GAUSS_KRUEGER_3GS;9000;847496;weitergehende Beh.;1;1;0;0;0;0;0;0;(null);2493;1128;Breitscheider Bach;Rhein;Rhein;51.354146;6.84901835
Weilerswist.Auf der Hochfahrt;NW;2559237;5625653;GAUSS_KRUEGER_3GS;25000;1428173;weitergehende Beh.;1;1;0;0;0;0;0;0;(null);7867;317;Erft;Rhein;Rhein;50.76332136;6.83898183
Schermbeck;NW;2559483;5727754;GAUSS_KRUEGER_3GS;16000;1100864;weitergehende Beh.;1;1;0;0;0;0;0;0;(null);11716;601;Schermbecker Mühlenbach;Rhein;Rhein;51.6809422;6.85940132
Raesfeld-Erle;NW;2559755;5733715;GAUSS_KRUEGER_3GS;5300;168649;weitergehende Beh.;1;1;0;0;0;0;0;1;Max.Besch.d.Filters in m?/(m*h) Trommelfilter;3226;106;Schermbecker Mühlenbach;Rhein;Rhein;51.73448408;6.86435488
KA Dorf im Warndt;SL;2559850;5449907;GAUSS_KRUEGER_3GS;2000;110909;weitergehende Beh.;1;0;0;0;0;0;0;0;(null);502;253;Grohbruchbach;Rhein;Rhein;49.18337245;6.82034782
Dormagen-Rheinfeld;NW;2559880;5662290;GAUSS_KRUEGER_3GS;95000;4740769;weitergehende Beh.;1;1;0;0;0;0;0;0;(null);38868;6181;Rhein;Rhein;Rhein;51.092552;6.85410787
KA THAILEN;SL;2560460;5488460;GAUSS_KRUEGER_3GS;9600;1386967;weitergehende Beh.;1;0;0;0;0;0;0;0;(null);6935;2418;Hölzbach;Rhein;Rhein;49.5299254;6.83456151
Hürth;NW;2560643;5641253;GAUSS_KRUEGER_3GS;90000;5990838;weitergehende Beh.;1;1;0;0;0;0;0;0;(null);63364;3051;Südkanal;Rhein;Rhein;50.90339255;6.86148744
Stadtlohn;NW;2560802;5763953;GAUSS_KRUEGER_3GS;30500;3131945;weitergehende Beh.;1;1;0;0;0;0;0;0;(null);19669;1376;Berkel;Rhein;Rhein;52.00610769;6.88483239
Unteres Salmtal GKA (Rivenich);RP;2561060;5526350;GAUSS_KRUEGER_3GS;15000;1996000;weitergehende Beh.;1;1;0;0;0;0;0;0;(null);16800;1400;Salm;Rhein;Rhein;49.87049582;6.8487646
KA VÖLKLINGEN;SL;2561190;5457835;GAUSS_KRUEGER_3GS;80000;9117811;weitergehende Beh.;1;1;0;0;0;0;0;0;(null);65192;6246;Saar;Rhein;Rhein;49.25451901;6.8399342
Buchholzbach;NW;2561511;5593455;GAUSS_KRUEGER_3GS;4500;363388;weitergehende Beh.;1;1;0;0;0;0;0;0;(null);3002;90;Buchholz Bach;Rhein;Rhein;50.47367246;6.86587554
KA PRIMSWEILER;SL;2561722;5474040;GAUSS_KRUEGER_3GS;15500;2400097;weitergehende Beh.;1;1;0;0;0;0;0;0;(null);14641;2915;Prims;Rhein;Rhein;49.4001576;6.84974619
Ratingen-Hösel-Bahnhof;NW;2562111;5690006;GAUSS_KRUEGER_3GS;7000;520065;weitergehende Beh.;1;0;0;0;0;0;0;0;(null);3373;912;Schlebrucher Bach;Rhein;Rhein;51.34141353;6.89074677
Velen;NW;2562227;5749747;GAUSS_KRUEGER_3GS;20000;1366960;weitergehende Beh.;1;1;0;0;0;0;0;0;(null);3954;542;Bocholter Aa;Rhein;Rhein;51.87828895;6.90301074
Ratingen-Hösel-Dickelsbach;NW;2562285;5688615;GAUSS_KRUEGER_3GS;10000;356106;weitergehende Beh.;0;0;0;0;0;0;0;1;Tropfkörper;7921.23;3047;Dickelsbach;Rhein;Rhein;51.32889309;6.89300047
4520132016 KA Juist;NI;2562349;5949368;GAUSS_KRUEGER_3GS;16000;310174;weitergehende Beh.;1;1;0;0;0;0;0;0;(null);393.4040233;225.2991145;Wattenmeer Nordsee;Ems;Ems;53.67187732;6.94281133
Oberes Alftal GKA (Schalkenmehren);RP;2562660;5557847;GAUSS_KRUEGER_3GS;6600;633000;weitergehende Beh.;1;0;0;0;0;0;0;0;(null);2880;1820;Alf;Rhein;Rhein;50.15347124;6.87615409
KA MORSCHOLZ;SL;2562772;5490684;GAUSS_KRUEGER_3GS;2500;663670;Zweitbehandlung;0;0;0;0;0;0;0;0;(null);9308;1099;Wahnbach;Rhein;Rhein;49.54968474;6.86684896
Lambachtal GKA (Plein);RP;2562886;5544807;GAUSS_KRUEGER_3GS;5610;396000;weitergehende Beh.;1;1;0;0;0;0;0;0;(null);1860;510;Lambach;Rhein;Rhein;50.03622667;6.87717238
Reinsfeld;RP;2563130;5503942;GAUSS_KRUEGER_3GS;4600;440000;Zweitbehandlung;0;0;0;0;0;0;0;0;(null);4510;680;Wadrill;Rhein;Rhein;49.6688378;6.87392524
Leiwen GKA (Köwerich);RP;2563220;5522380;GAUSS_KRUEGER_3GS;33000;715000;weitergehende Beh.;1;1;0;0;0;0;0;0;(null);2870;580;Mosel;Rhein;Rhein;49.83458283;6.8781608
4564012017 KA Hoogstede;NI;2563260;5827670;GAUSS_KRUEGER_3GS;2850;148167;weitergehende Beh.;1;0;0;0;0;0;0;0;(null);593.2310346;957.15882;VECHTE (Gew.II.O.);Rhein;Rhein;52.57837956;6.93259154
Hilden;NW;2563281;5669756;GAUSS_KRUEGER_3GS;76000;5963434;weitergehende Beh.;1;1;0;0;0;0;0;0;(null);33492;5046;Itter;Rhein;Rhein;51.15928879;6.90395747
Monheim;NW;2563321;5663810;GAUSS_KRUEGER_3GS;166000;8522569;weitergehende Beh.;1;1;0;0;0;0;0;0;(null);123964;3580;Rhein;Rhein;Rhein;51.10584393;6.90348511
KA BÜSCHFELD;SL;2563473;5483025;GAUSS_KRUEGER_3GS;15000;2746793;weitergehende Beh.;1;1;0;0;0;0;0;0;(null);7210;1603;Prims;Rhein;Rhein;49.48075578;6.87530466
Heiden;NW;2563824;5743400;GAUSS_KRUEGER_3GS;10000;682712;weitergehende Beh.;1;1;0;0;0;0;0;0;(null);1856;363;Dorfbach;Rhein;Rhein;51.82107119;6.92502721
KA PÜTTLINGEN;SL;2564100;5460527;GAUSS_KRUEGER_3GS;34000;2958491;weitergehende Beh.;1;1;0;0;0;0;0;0;(null);27884;3225;Köllerbach;Rhein;Rhein;49.27842401;6.88033396
Swisttal Heimerzheim;NW;2564100;5621267;GAUSS_KRUEGER_3GS;10700;463418;weitergehende Beh.;1;1;0;0;0;0;0;0;(null);9296;309;Swistbach;Rhein;Rhein;50.72338248;6.90713708
Essen-Kettwig;NW;2564181;5693466;GAUSS_KRUEGER_3GS;100000;8666436;weitergehende Beh.;1;1;0;0;0;0;0;0;(null);34307;3822;Ruhr;Rhein;Rhein;51.37227959;6.92107376
KA DAGSTUHL;SL;2564431;5487955;GAUSS_KRUEGER_3GS;6300;1899400;weitergehende Beh.;0;0;0;0;0;0;0;0;nur Nitrifikation;11871;2702;Prims;Rhein;Rhein;49.5249766;6.88932673
Köln Langel;NW;2564631;5656905;GAUSS_KRUEGER_3GS;110000;6900074;weitergehende Beh.;1;1;0;0;0;0;0;0;(null);63743;2785;Rhein;Rhein;Rhein;51.04363791;6.92095365
Gillenfeld;RP;2564668;5554475;GAUSS_KRUEGER_3GS;4000;287000;weitergehende Beh.;1;0;0;0;0;0;0;0;(null);1000;590;Alf;Rhein;Rhein;50.12294428;6.90367617
KA LEBACH;SL;2564690;5475067;GAUSS_KRUEGER_3GS;17500;2217408;weitergehende Beh.;1;1;0;0;0;0;0;0;(null);9479;1680;Theel;Rhein;Rhein;49.40908283;6.89079929
"Neumagen-Dhron GKA ""Auf Kopp""";RP;2564691;5526738;GAUSS_KRUEGER_3GS;15000;618000;weitergehende Beh.;1;1;0;0;0;0;0;0;(null);620;430;Mosel;Rhein;Rhein;49.87360283;6.89933258
Ratingen-Homberg-Süd;NW;2564755;5684181;GAUSS_KRUEGER_3GS;5000;302175;weitergehende Beh.;0;0;0;0;0;0;0;1;Tropfkörper;4914;402;Schwarzbach;Rhein;Rhein;51.28876762;6.92762921
Trittenheim;RP;2564777;5521955;GAUSS_KRUEGER_3GS;7000;164000;weitergehende Beh.;1;0;0;0;0;0;0;0;(null);260;150;Mosel;Rhein;Rhein;49.83059616;6.89972995
KA GEHWEILER;SL;2565080;5492625;GAUSS_KRUEGER_3GS;2200;289400;Zweitbehandlung;0;0;0;0;0;0;0;0;(null);2170;318;Wadrill;Rhein;Rhein;49.56689109;6.8990604
Dorsten;NW;2565242;5726784;GAUSS_KRUEGER_3GS;137000;6693359;weitergehende Beh.;1;1;0;0;0;0;0;0;(null);17594;1890;Hammbach;Rhein;Rhein;51.67158599;6.94247422
Erkrath-Hochdahl;NW;2565376;5674184;GAUSS_KRUEGER_3GS;40000;3081204;weitergehende Beh.;1;1;0;0;0;0;0;0;(null);22035;1997;Eselsbach;Rhein;Rhein;51.19884995;6.93470562
Heiligenhaus-Angertal;NW;2565568;5686949;GAUSS_KRUEGER_3GS;60000;6313609;weitergehende Beh.;1;1;0;0;0;0;0;0;(null);49477;4804;Anger;Rhein;Rhein;51.31355145;6.93979006
4564022015 KA Neuenhaus;NI;2565660;5819700;GAUSS_KRUEGER_3GS;18000;587000;weitergehende Beh.;1;1;0;0;0;0;0;0;(null);832.0557286;154.5766667;VECHTE;Rhein;Rhein;52.50648258;6.96641454
Mettmann-Metzkausen;NW;2565680;5682350;GAUSS_KRUEGER_3GS;7500;412185;weitergehende Beh.;1;1;0;0;0;0;0;0;(null);757;497;Krumbach;Rhein;Rhein;51.272206;6.9405507
Swisttal Miel;NW;2566260;5615202;GAUSS_KRUEGER_3GS;11000;828110;weitergehende Beh.;1;1;0;0;0;0;0;0;(null);11542;288;Swistbach;Rhein;Rhein;50.66862676;6.93663495
Rheinbach;NW;2566302;5611606;GAUSS_KRUEGER_3GS;27000;2161268;weitergehende Beh.;1;1;0;0;0;0;0;1;Klarwassernitrifikation 548 m?;24007;662;Wallbach;Rhein;Rhein;50.63630008;6.93658567
Adenauer Bach Dümpelfeld;RP;2566359;5590509;GAUSS_KRUEGER_3GS;20000;1882000;weitergehende Beh.;1;1;0;0;0;0;0;0;(null);18900;2260;Ahr;Rhein;Rhein;50.44666372;6.93363783
Erkrath-Neandertal;NW;2566415;5677089;GAUSS_KRUEGER_3GS;2500;97912;weitergehende Beh.;0;0;0;0;0;0;0;1;nachg. Bio. Reinigungsstuffe;2261;466.3;Düssel;Rhein;Rhein;51.22483854;6.95010595
Brühl;NW;2566571;5634146;GAUSS_KRUEGER_3GS;70000;3851531;weitergehende Beh.;1;1;0;0;0;0;0;0;(null);39865;4726;Palmersdorfer Bach;Rhein;Rhein;50.83886246;6.94445643
KA WALPERSHOFEN;SL;2566580;5464974;GAUSS_KRUEGER_3GS;36000;5050371;weitergehende Beh.;1;1;0;0;0;0;0;0;(null);93215;5786;Köllerbach;Rhein;Rhein;49.31813972;6.91515337
Wittlich ZKA ( Wengerohr );RP;2566662;5536552;GAUSS_KRUEGER_3GS;38100;1987000;weitergehende Beh.;1;1;0;0;0;0;0;0;(null);14200;2250;Lieser;Rhein;Rhein;49.96160929;6.92844176
Hermeskeil GKA;RP;2567135;5502353;GAUSS_KRUEGER_3GS;14154;1548000;weitergehende Beh.;1;1;0;0;0;0;0;0;(null);8840;1050;Lösterbach;Rhein;Rhein;49.65412079;6.92912704
Bornheim Sechtem;NW;2567515;5629816;GAUSS_KRUEGER_3GS;24150;1488850;weitergehende Beh.;1;1;0;0;0;0;0;0;(null);11844;334;Mühlenbach;Rhein;Rhein;50.79983511;6.95705959
KA BUBACH-CALMESWEILER;SL;2567641;5475570;GAUSS_KRUEGER_3GS;24500;3659350;weitergehende Beh.;1;1;0;0;0;0;0;0;(null);17198;2845;Theel;Rhein;Rhein;49.4132844;6.93154363
Mettmann-Obschwarzbach;NW;2568059;5684042;GAUSS_KRUEGER_3GS;2500;124018;weitergehende Beh.;0;1;0;0;0;0;0;0;(null);1042;205;Hausmannsgraben;Rhein;Rhein;51.28713333;6.97495806
KA BURBACH;SL;2568070;5456280;GAUSS_KRUEGER_3GS;200000;10056996;weitergehende Beh.;1;1;0;0;0;0;0;0;(null);97427;4363;Saar;Rhein;Rhein;49.23981282;6.93416651
Bottrop;NW;2568141;5708946;GAUSS_KRUEGER_3GS;1340000;139700000;weitergehende Beh.;1;1;0;0;0;0;0;0;(null);1609165;60249;Emscher;Rhein;Rhein;51.51093681;6.9809122
Mettmann;NW;2568147;5678408;GAUSS_KRUEGER_3GS;55000;5221218;weitergehende Beh.;1;1;0;0;0;0;0;1;Filtration durch  Bio-Festbettreaktoren;15684;2357;Mettmanner Bach;Rhein;Rhein;51.23648874;6.9751465
Bruderbach GKA (Beuren);RP;2568338;5510720;GAUSS_KRUEGER_3GS;11000;1129000;weitergehende Beh.;1;1;0;0;0;0;0;0;(null);9720;760;Kleine Dhron;Rhein;Rhein;49.72920303;6.94724626
Köln Stammheim;NW;2568478;5651395;GAUSS_KRUEGER_3GS;1450000;78840000;weitergehende Beh.;1;1;0;0;0;0;0;0;(null);564516;27294;Rhein;Rhein;Rhein;50.99367074;6.97476061
Gescher-Harwick;NW;2568606;5759755;GAUSS_KRUEGER_3GS;29000;2163116;weitergehende Beh.;1;1;0;0;0;0;0;0;(null);6587;581;Berkel;Rhein;Rhein;51.96747481;6.99762392
Solingen-Ohligs;NW;2569183;5671445;GAUSS_KRUEGER_3GS;130000;11420000;weitergehende Beh.;1;1;0;0;0;0;0;0;(null);135354;8100;Itter;Rhein;Rhein;51.17378565;6.98863671
Heiligenhaus-Abtsküche;NW;2569306;5689863;GAUSS_KRUEGER_3GS;33000;3896491;weitergehende Beh.;1;1;0;0;0;0;0;0;(null);34169;1062;Rinderbach;Rhein;Rhein;51.33929709;6.9939607
KA PRIMSTAL;SL;2569410;5488451;GAUSS_KRUEGER_3GS;2600;589572;Zweitbehandlung;0;0;0;0;0;0;0;0;(null);11703;1411;Prims;Rhein;Rhein;49.52888644;6.95817591
Gronau;NW;2569526;5788376;GAUSS_KRUEGER_3GS;76600;6086661;weitergehende Beh.;1;1;0;0;0;0;0;0;(null);22318;2156;Dinkel;Rhein;Rhein;52.22454493;7.01685015
Rheinbach Flerzheim;NW;2569657;5613682;GAUSS_KRUEGER_3GS;50000;4075665;weitergehende Beh.;1;1;0;0;0;0;0;1;Klarwassernitrifikation;62293;1489;Swistbach;Rhein;Rhein;50.65456852;6.98439305
Zentralklärwerk Ahaus;NW;2569663;5773809;GAUSS_KRUEGER_3GS;60000;2879732;weitergehende Beh.;1;1;0;0;0;0;0;0;(null);28482;1479;Ahauser Aa;Rhein;Rhein;52.09363225;7.01586394
Haan-Gruiten;NW;2569991;5677447;GAUSS_KRUEGER_3GS;5500;571919;weitergehende Beh.;0;0;0;0;0;0;0;1;belüftete Sandfilter;12577;1986;Düssel;Rhein;Rhein;51.22762894;7.00135822
Wesseling;NW;2570091;5632304;GAUSS_KRUEGER_3GS;40000;2572546;weitergehende Beh.;1;1;0;0;0;0;0;0;(null);25984;2333;Rhein;Rhein;Rhein;50.82189141;6.99406868
KA KASTEL;SL;2570200;5492211;GAUSS_KRUEGER_3GS;8000;1947840;weitergehende Beh.;1;1;0;0;0;1;0;0;(null);1686;1686;Prims;Rhein;Rhein;49.56259762;6.96975616
Ulmen;RP;2570238;5563095;GAUSS_KRUEGER_3GS;3500;314000;Zweitbehandlung;0;0;0;0;0;0;0;0;(null);4580;1420;Ulmener Bach;Rhein;Rhein;50.19979659;6.98314241
Bornheim;NW;2570294;5626564;GAUSS_KRUEGER_3GS;24000;1975634;weitergehende Beh.;1;1;0;0;0;0;0;0;(null);33568;899;Roisdorfer Bornheimer Bach;Rhein;Rhein;50.77027612;6.99585132
4520142037 KA Hamswehrum;NI;2570530;5921530;GAUSS_KRUEGER_3GS;5400;193970;weitergehende Beh.;1;1;0;0;0;0;0;0;(null);2128.335825;1206.008475;Zweitiefenschloot;Ems;Ems;53.42075579;7.06030062
4520142040 KA Pilsum-Mansl.;NI;2570530;5926620;GAUSS_KRUEGER_3GS;6500;237040;weitergehende Beh.;0;1;0;0;0;0;0;0;(null);2534.5502;602.0816;GEW.II.O UNTERSLOET;Ems;Ems;53.4664825;7.06144107
Mittelahr Altenahr;RP;2570923;5598286;GAUSS_KRUEGER_3GS;11000;885000;weitergehende Beh.;1;1;0;0;0;0;0;0;(null);5900;420;Ahr;Rhein;Rhein;50.51603311;6.99935762
4560152013 KA Nordhorn;NI;2571040;5812960;GAUSS_KRUEGER_3GS;202500;3596785;weitergehende Beh.;1;1;0;0;0;1;0;0;(null);40675.14237;924.6734771;VECHTE;Rhein;Rhein;52.4452484;7.04419959
KA SOTZWEILER;SL;2571080;5480070;GAUSS_KRUEGER_3GS;12600;2361600;weitergehende Beh.;1;1;0;0;0;0;0;0;(null);8384;2804;Theel;Rhein;Rhein;49.45334808;6.9797352
Köln Rodenkirchen;NW;2571365;5639686;GAUSS_KRUEGER_3GS;88000;5056192;weitergehende Beh.;1;1;0;0;0;0;0;0;(null);52916;1932;Rhein;Rhein;Rhein;50.88808381;7.01358367
KA HOLZ;SL;2571393;5466935;GAUSS_KRUEGER_3GS;6000;704615;weitergehende Beh.;1;0;0;0;0;0;0;0;(null);1392;1506;Wahlbach;Rhein;Rhein;49.33522623;6.98169422
Auderath-Schmitt Schmitt;RP;2571608;5559258;GAUSS_KRUEGER_3GS;3800;278000;weitergehende Beh.;1;0;0;0;0;0;0;0;(null);1730;860;Litzbach;Rhein;Rhein;50.16514232;7.00160599
Dorsten-Wulfen;NW;2571768;5731234;GAUSS_KRUEGER_3GS;130000;3111678;weitergehende Beh.;1;1;0;0;0;0;0;0;(null);24910;873;N.N.;Rhein;Rhein;51.71078034;7.03770906
Gelsenkirchen-Picksmühlenbach;NW;2571855;5719757;GAUSS_KRUEGER_3GS;70000;7027671;weitergehende Beh.;1;1;0;0;0;0;0;0;(null);39196;5044;Picksmühlenbach;Rhein;Rhein;51.60763144;7.03660947
Wesseling Urfeld;NW;2572335;5631145;GAUSS_KRUEGER_3GS;6400;317165;weitergehende Beh.;1;0;0;0;0;0;0;0;(null);3759;1044;Rhein;Rhein;Rhein;50.81119873;7.02568058
Unteres Liesertal GKA (Lieser);RP;2572346;5531926;GAUSS_KRUEGER_3GS;22270;1200000;weitergehende Beh.;1;1;0;0;0;0;0;0;(null);11900;840;Lieser;Rhein;Rhein;49.91936389;7.00677939
KA DIRMINGEN;SL;2572533;5475877;GAUSS_KRUEGER_3GS;12600;1808332;weitergehende Beh.;1;1;0;0;0;0;0;0;(null);7957;1679;Ill;Rhein;Rhein;49.41548142;6.99900593
Velbert-Hespertal;NW;2572707;5693020;GAUSS_KRUEGER_3GS;19000;1867812;weitergehende Beh.;1;1;0;0;0;0;0;0;(null);6140;1045;Hesperbach;Rhein;Rhein;51.36724431;7.04340346
KA JÄGERSFREUDE;SL;2572770;5458440;GAUSS_KRUEGER_3GS;56000;6503623;weitergehende Beh.;1;1;0;0;0;0;0;0;(null);66337;6614;Sulzbach;Rhein;Rhein;49.25869175;6.99909206
Mayschoss;RP;2572776;5598927;GAUSS_KRUEGER_3GS;4000;205000;Zweitbehandlung;0;0;0;0;0;0;0;0;(null);1550;250;Ahr;Rhein;Rhein;50.52156732;7.02560451
Niederkassel;NW;2573100;5630700;GAUSS_KRUEGER_3GS;35000;2357404;weitergehende Beh.;1;1;0;0;0;0;0;0;(null);11112;2300;Rhein;Rhein;Rhein;50.80710318;7.03644411
Solingen-Gräfrath;NW;2573190;5674050;GAUSS_KRUEGER_3GS;26000;2940074;weitergehende Beh.;1;1;0;0;0;0;0;0;(null);12530;275;Itter;Rhein;Rhein;51.19669868;7.04645405
4520142039 KA Greetsiel;NI;2573270;5929880;GAUSS_KRUEGER_3GS;4000;66440;weitergehende Beh.;0;1;0;0;0;0;0;0;(null);791.7987;41.3589;ALTES GREETSIELER  SIELTIEF;Ems;Ems;53.49539464;7.10345208
Wülfrath-Düssel;NW;2573430;5680730;GAUSS_KRUEGER_3GS;8000;324198;weitergehende Beh.;0;1;0;0;0;0;0;0;(null);1203;418;Düssel;Rhein;Rhein;51.25670161;7.05125474
4560012021 KA Gildehaus;NI;2573700;5797740;GAUSS_KRUEGER_3GS;8000;363929;weitergehende Beh.;1;1;0;0;0;0;0;0;(null);729.2409302;313.706798;Gildehauser GRABEN;Rhein;Rhein;52.30814151;7.07996839
Marl-West;NW;2573828;5726046;GAUSS_KRUEGER_3GS;64000;3903930;weitergehende Beh.;1;1;0;0;0;0;0;0;(null);30178;1888;Weierbach;Rhein;Rhein;51.66389203;7.06641045
Reken;NW;2573938;5742320;GAUSS_KRUEGER_3GS;12500;953183;weitergehende Beh.;1;1;0;0;0;0;0;0;(null);4241;433;Boombach;Rhein;Rhein;51.81012017;7.0714563
Velbert-Tönisheide;NW;2574016;5686800;GAUSS_KRUEGER_3GS;8000;302714;weitergehende Beh.;1;0;0;0;0;0;0;0;(null);1764;487;Eigener Bach;Rhein;Rhein;51.31117681;7.06090453
Bonn Duisdorf;NW;2574065;5621712;GAUSS_KRUEGER_3GS;30000;2438899;weitergehende Beh.;1;1;0;0;0;0;0;0;(null);36849;851;Rhein;Rhein;Rhein;50.7261982;7.04832402
Heek;NW;2574428;5778877;GAUSS_KRUEGER_3GS;12000;580661;weitergehende Beh.;1;1;0;0;0;0;0;0;(null);2388;222;Dinkel;Rhein;Rhein;52.13855123;7.08648786
Legden II;NW;2574537;5768982;GAUSS_KRUEGER_3GS;18000;1116619;weitergehende Beh.;1;1;0;0;0;0;0;0;(null);6931;185;Dinkel;Rhein;Rhein;52.04962352;7.08591461
KA WUSTWEILER;SL;2574646;5474284;GAUSS_KRUEGER_3GS;41000;6199422;weitergehende Beh.;1;1;0;0;0;0;0;0;(null);13484;4386;Ill;Rhein;Rhein;49.40090506;7.02782252
KA BREBACH;SL;2574880;5453214;GAUSS_KRUEGER_3GS;135000;11395673;weitergehende Beh.;1;1;0;0;0;0;0;0;(null);97530;9150;Saarbach;Rhein;Rhein;49.21145432;7.02709922
Bornheim Hersel;NW;2574916;5626466;GAUSS_KRUEGER_3GS;9500;555452;weitergehende Beh.;1;1;0;0;0;0;0;0;(null);7325;268;Rhein;Rhein;Rhein;50.76881722;7.06134043
4540542001 KA Twist;NI;2575068;5835054;GAUSS_KRUEGER_3GS;9500;525192;weitergehende Beh.;1;1;0;0;0;0;0;0;(null);787.788;656.49;Kanalgraben;Ems;Ems;52.64322182;7.10842349
Essen-Kupferdreh;NW;2575097;5696190;GAUSS_KRUEGER_3GS;96000;12330000;weitergehende Beh.;1;1;0;0;0;0;0;0;(null);77670;2104;Ruhr;Rhein;Rhein;51.39542164;7.07838568
Essen-Süd;NW;2575120;5697193;GAUSS_KRUEGER_3GS;135000;15620000;weitergehende Beh.;1;1;0;0;0;0;0;0;(null);119607;12359;Ruhr;Rhein;Rhein;51.40443232;7.07892827
Herten-Westerholt;NW;2575215;5720285;GAUSS_KRUEGER_3GS;36000;2788743;weitergehende Beh.;1;1;0;0;0;0;0;0;(null);18666;1364;Rapphofsmühlenbach;Rhein;Rhein;51.61193777;7.08521539
Bad Bertrich;RP;2575591;5548886;GAUSS_KRUEGER_3GS;2700;399000;weitergehende Beh.;1;1;0;0;0;0;0;0;(null);2320;400;Erdenbach;Rhein;Rhein;50.07141624;7.05529027
KA QUIERSCHIED;SL;2575677;5464240;GAUSS_KRUEGER_3GS;27000;2231242;weitergehende Beh.;1;1;0;0;0;0;0;0;(null);8032;1224;Fischbach;Rhein;Rhein;49.31048217;7.04011811
4540182001 KA Altenberge;NI;2575690;5856082;GAUSS_KRUEGER_3GS;4500;175569;weitergehende Beh.;1;1;0;0;0;0;0;0;(null);2277.12993;147.47796;Süd - Nord - Kanal;Ems;Ems;52.83206218;7.12245872
Köln Wahn;NW;2575828;5637196;GAUSS_KRUEGER_3GS;92000;5840551;weitergehende Beh.;1;1;0;0;0;0;0;0;(null);51452;1855;Rhein;Rhein;Rhein;50.86513647;7.07648213
Oberes Elztal GKA (Oberelz);RP;2576181;5572051;GAUSS_KRUEGER_3GS;5700;629000;weitergehende Beh.;1;1;0;0;0;0;0;0;(null);6050;850;Elzbach;Rhein;Rhein;50.27956403;7.06816444
Bernkastel-Kues ZKA;RP;2576219;5533245;GAUSS_KRUEGER_3GS;33360;909000;weitergehende Beh.;1;1;0;0;0;0;0;0;(null);8600;90;Mosel;Rhein;Rhein;49.93073973;7.06096073
Reken Maria-Veen;NW;2576319;5745282;GAUSS_KRUEGER_3GS;5000;268097;weitergehende Beh.;1;1;0;0;0;0;0;0;(null);2157;209;N.N.;Rhein;Rhein;51.83641701;7.1066259
Kröv-Zeltingen GKA (Kinheim);RP;2576422;5537269;GAUSS_KRUEGER_3GS;27575;561000;weitergehende Beh.;1;1;0;0;0;0;0;0;(null);3820;270;Mosel;Rhein;Rhein;49.96688574;7.06458499
Nitzbachtal Virneburg;RP;2576740;5579754;GAUSS_KRUEGER_3GS;2600;210000;weitergehende Beh.;1;0;0;0;0;0;0;0;(null);1720;400;Nitzbach;Rhein;Rhein;50.34872967;7.07757009
Rosendahl-Holtwick;NW;2576741;5763647;GAUSS_KRUEGER_3GS;7600;563398;weitergehende Beh.;1;1;0;0;0;0;0;0;(null);3157;545;Holtwicker Bach;Rhein;Rhein;52.00138435;7.11683927
Bergisch-Gladbach;NW;2577006;5647951;GAUSS_KRUEGER_3GS;166000;8893100;weitergehende Beh.;1;1;0;0;0;0;0;0;(null);58421;6056;Rechtsrheinischer Kölner Randkanal;Rhein;Rhein;50.96164099;7.09548001
Wachtberg Arzdorf;NW;2577066;5609201;GAUSS_KRUEGER_3GS;2200;247726;weitergehende Beh.;1;0;0;0;0;0;0;0;(null);4525;115;Godesberger Bach;Rhein;Rhein;50.61336132;7.08821342
Bonn Salierweg;NW;2577163;5625217;GAUSS_KRUEGER_3GS;285000;17160000;weitergehende Beh.;1;1;0;0;0;0;0;0;(null);94730;3705;Rhein;Rhein;Rhein;50.75729727;7.09292476
4020002008 KA Emden-Larrelt;NI;2577316;5915128;GAUSS_KRUEGER_3GS;90000;4796906;weitergehende Beh.;1;1;0;0;0;0;0;0;(null);52286;2255;Ems-km 43.8;Ems;Ems;53.36229347;7.16078481
Wuppertal-Buchenhofen;NW;2577336;5677093;GAUSS_KRUEGER_3GS;700000;47600000;weitergehende Beh.;1;1;0;0;0;0;0;0;(null);310993;13427;Wupper;Rhein;Rhein;51.22350015;7.10641213
Marl-Ost;NW;2577342;5728971;GAUSS_KRUEGER_3GS;55000;3069499;weitergehende Beh.;1;1;0;0;0;0;0;0;(null);47906;3641;Sickingmühlenbach;Rhein;Rhein;51.68970436;7.11783553
Odenthal Osenau;NW;2577438;5655287;GAUSS_KRUEGER_3GS;18000;1450322;weitergehende Beh.;1;1;0;0;0;0;0;0;(null);10163;994;Dhünn;Rhein;Rhein;51.02751399;7.10319085
KA SÖTERN;SL;2577550;5495750;GAUSS_KRUEGER_3GS;2000;152976;weitergehende Beh.;1;0;0;0;0;0;0;0;(null);857;238;SÖTERBACH;Rhein;Rhein;49.59351554;7.07203445
Unteres Alftal GKA (Bengel);RP;2577565;5543664;GAUSS_KRUEGER_3GS;19250;375000;weitergehende Beh.;1;1;0;0;0;0;0;0;(null);1620;110;Alf;Rhein;Rhein;50.02422257;7.08180328
Mimbachtal Bermel;RP;2577581;5573104;GAUSS_KRUEGER_3GS;3700;389000;weitergehende Beh.;1;0;0;0;0;0;0;0;(null);3440;590;Elzbach;Rhein;Rhein;50.28884667;7.08801794
4520202014 KA Norderney;NI;2577898;5953778;GAUSS_KRUEGER_3GS;49000;1291524;weitergehende Beh.;1;1;0;0;0;0;0;0;(null);1980.874935;1559.51523;Schönungsteiche;Ems;Ems;53.70940696;7.17914203
Coesfeld;NW;2578025;5756304;GAUSS_KRUEGER_3GS;120000;5804097;weitergehende Beh.;1;1;0;0;0;0;0;0;(null);51849;2686;Berkel;Rhein;Rhein;51.93522345;7.13386371
Bonn Beuel;NW;2578267;5625037;GAUSS_KRUEGER_3GS;80000;5157632;weitergehende Beh.;1;1;0;0;0;0;0;0;(null);62675;1453;Rhein;Rhein;Rhein;50.75553176;7.10852924
Wuppertal-Kohlfurth;NW;2578350;5672750;GAUSS_KRUEGER_3GS;190000;17850000;weitergehende Beh.;1;1;0;0;0;0;0;0;(null);116805;4041;Wupper;Rhein;Rhein;51.18433179;7.11997664
Troisdorf;NW;2578968;5627662;GAUSS_KRUEGER_3GS;70000;6278303;weitergehende Beh.;1;1;0;0;0;0;0;0;(null);73006;7554;Sieg;Rhein;Rhein;50.77902933;7.1190244
Essen-Burgaltendorf;NW;2579120;5699172;GAUSS_KRUEGER_3GS;44180;4114375;weitergehende Beh.;1;1;0;0;0;0;0;0;(null);18006;1801;Ruhr;Rhein;Rhein;51.4216732;7.13684189
KA ESCHRINGEN;SL;2579243;5450646;GAUSS_KRUEGER_3GS;11500;1619047;weitergehende Beh.;1;1;0;0;0;0;0;0;(null);9573;1697;Saarbach;Rhein;Rhein;49.18781952;7.08646365
Wachtberg Pech;NW;2579517;5613935;GAUSS_KRUEGER_3GS;9000;569427;weitergehende Beh.;1;1;0;0;0;0;0;0;(null);3724;727;Godesberger Bach;Rhein;Rhein;50.65558079;7.12385049
Solingen-Burg;NW;2579577;5667237;GAUSS_KRUEGER_3GS;123100;7864351;weitergehende Beh.;1;1;0;0;0;0;0;0;(null);57244;1982;Wupper;Rhein;Rhein;51.13461743;7.13630361
4520192015 KA Norden;NI;2579680;5939675;GAUSS_KRUEGER_3GS;60000;2128467;weitergehende Beh.;1;1;1;0;0;1;0;0;(null);8423.408153;517.0401088;Norder Tief;Ems;Ems;53.58245239;7.20251019
Marl-Lenkerbeck;NW;2579769;5726716;GAUSS_KRUEGER_3GS;25000;1571398;weitergehende Beh.;1;1;0;0;0;0;0;0;(null);15220;1549;Silvertbach;Rhein;Rhein;51.66910136;7.1524104
Masburg-Urmersbach-Hauroth Urmersbach;RP;2580212;5570153;GAUSS_KRUEGER_3GS;2970;168000;Zweitbehandlung;0;0;0;0;0;0;0;0;(null);3360;570;Thürelzbach;Rhein;Rhein;50.26197053;7.12430441
Haltern-West;NW;2580322;5733115;GAUSS_KRUEGER_3GS;76000;3824151;weitergehende Beh.;1;1;0;0;0;0;0;0;(null);29454;1997;Lippe;Rhein;Rhein;51.72652433;7.16187509
Morbach GKA;RP;2580388;5520336;GAUSS_KRUEGER_3GS;13000;1546000;weitergehende Beh.;1;1;0;0;0;0;0;0;(null);5100;1080;Dhron;Rhein;Rhein;49.81415508;7.11633623
KA WINTERBACH;SL;2580970;5482500;GAUSS_KRUEGER_3GS;3500;474690;weitergehende Beh.;0;0;0;0;0;0;0;0;(null);9316;1430;Winterbach;Rhein;Rhein;49.47395662;7.11661147
Bremm-Neef-St. Aldegund Bremm;RP;2581043;5551615;GAUSS_KRUEGER_3GS;8200;231000;weitergehende Beh.;1;1;0;0;0;0;0;0;(null);620;140;Mosel;Rhein;Rhein;50.09522876;7.13201073
Traben-Trarbach ZKA;RP;2581198;5536624;GAUSS_KRUEGER_3GS;21000;892000;weitergehende Beh.;1;1;0;0;0;0;0;0;(null);4460;450;Mosel;Rhein;Rhein;49.96045789;7.13100587
Bonn Bad Godesberg;NW;2581216;5620021;GAUSS_KRUEGER_3GS;110000;7455436;weitergehende Beh.;1;1;0;0;0;0;0;0;(null);99176;3626;Rhein;Rhein;Rhein;50.71004528;7.14920762
4560012022 KA Bentheim;NI;2581220;5794900;GAUSS_KRUEGER_3GS;18000;759558;weitergehende Beh.;1;1;0;0;0;0;0;0;(null);3366.979553;369.018595;EILERINGSBECKE;Rhein;Rhein;52.28156376;7.18951606
Hattingen;NW;2581240;5696258;GAUSS_KRUEGER_3GS;100000;12120000;weitergehende Beh.;1;1;0;0;0;0;0;0;(null);53028;6112;Ruhr;Rhein;Rhein;51.39518692;7.16664637
St.Augustin Menden;NW;2581242;5628985;GAUSS_KRUEGER_3GS;210000;13200000;weitergehende Beh.;1;1;0;0;0;0;0;0;(null);78116;5080;Sieg;Rhein;Rhein;50.79060585;7.15155169
KA RUHBACHTAL;SL;2581348;5464372;GAUSS_KRUEGER_3GS;4000;289612;Zweitbehandlung;0;0;0;0;0;0;0;0;(null);7421;915;Ruhbach;Rhein;Rhein;49.31094039;7.11811939
Faid-Dohr-Brauheck Cochem;RP;2581495;5555195;GAUSS_KRUEGER_3GS;18600;330000;weitergehende Beh.;1;1;0;0;0;0;0;0;(null);2030;90;Ellerbach;Rhein;Rhein;50.12734607;7.13908973
Pünderich;RP;2581524;5545290;GAUSS_KRUEGER_3GS;22000;544000;weitergehende Beh.;1;1;0;0;0;0;0;0;(null);3660;280;Mosel;Rhein;Rhein;50.03830995;7.13738552
Kaisersesch;RP;2581734;5566231;GAUSS_KRUEGER_3GS;5500;434000;weitergehende Beh.;1;1;0;0;0;0;0;0;(null);1440;140;Pommerbach;Rhein;Rhein;50.22650978;7.14480005
KA BLIESEN;SL;2581810;5484265;GAUSS_KRUEGER_3GS;13000;1491028;weitergehende Beh.;1;1;0;0;0;0;0;0;(null);2513;1130;Blies;Rhein;Rhein;49.4897107;7.12856425
Zell-Alf-Bullay Zell-Merl;RP;2581833;5546178;GAUSS_KRUEGER_3GS;25000;806000;weitergehende Beh.;1;1;0;0;0;0;0;0;(null);3500;400;Mosel;Rhein;Rhein;50.04624952;7.14188745
Ochtrup;NW;2582196;5785556;GAUSS_KRUEGER_3GS;49000;2057953;weitergehende Beh.;1;1;0;0;1;0;0;0;(null);19364;422;Farbbach;Rhein;Rhein;52.19746254;7.20154109
Wachtberg Züllighoven;NW;2582213;5610121;GAUSS_KRUEGER_3GS;2900;350849;weitergehende Beh.;0;1;0;0;0;0;0;0;(null);4002;179;Mehlemer Bach;Rhein;Rhein;50.62092783;7.16112174
Rosendahl-Osterwick;NW;2582384;5764885;GAUSS_KRUEGER_3GS;13000;1512453;weitergehende Beh.;1;1;0;0;0;0;0;0;(null);11823;960;Varlarer Mühlenbach;Rhein;Rhein;52.01170014;7.19928864
KA NOHFELDEN;SL;2582430;5495760;GAUSS_KRUEGER_3GS;7800;1461486;weitergehende Beh.;1;1;0;0;0;0;0;0;(null);5956;765;Nahe;Rhein;Rhein;49.59296041;7.13952188
4524012001 KA Marienhafe;NI;2582490;5932950;GAUSS_KRUEGER_3GS;11700;487467;weitergehende Beh.;1;1;0;0;0;0;0;0;(null);1277.975985;155.98944;van Hove Tief;Ems;Ems;53.52160813;7.24315458
Oberes Nettetal;RP;2582636;5583450;GAUSS_KRUEGER_3GS;12500;892000;weitergehende Beh.;1;1;0;0;0;0;0;0;(null);3780;530;Nette;Rhein;Rhein;50.3811524;7.16120167
Landkern-Greimersburg. Landkern;RP;2582836;5561612;GAUSS_KRUEGER_3GS;2000;190000;Zweitbehandlung;0;0;0;0;0;0;0;0;(null);1560;160;Pfanterbach;Rhein;Rhein;50.18483938;7.15923379
Königswinter;NW;2582929;5619361;GAUSS_KRUEGER_3GS;43750;1694151;weitergehende Beh.;1;1;0;0;0;0;0;0;(null);14809;986;Rhein;Rhein;Rhein;50.70387185;7.17330625
4540142002 KA Gr. Hespe;NI;2583015;5835285;GAUSS_KRUEGER_3GS;4200;132391;weitergehende Beh.;1;1;0;0;0;0;0;0;(null);307.14712;99.29325;Hakengraben;Ems;Ems;52.64413992;7.22585988
4540182002 KA Haren;NI;2583035;5853185;GAUSS_KRUEGER_3GS;44000;861874;weitergehende Beh.;1;1;0;0;0;0;0;0;(null);4490.36354;491.26818;Ems;Ems;Ems;52.8049541;7.23067884
KA OMMERSHEIM;SL;2583159;5453690;GAUSS_KRUEGER_3GS;5000;706430;Zweitbehandlung;0;0;0;0;0;0;0;0;(null);11267;1782;Saarbach;Rhein;Rhein;49.21466696;7.1408032
4564032012 KA Schuettorf;NI;2583250;5799980;GAUSS_KRUEGER_3GS;48300;1355565;weitergehende Beh.;1;1;0;0;0;0;0;0;(null);9800;3740.229763;VECHTE;Rhein;Rhein;52.32690333;7.22051056
Karbachtal Monreal;RP;2583396;5574135;GAUSS_KRUEGER_3GS;2500;303000;Zweitbehandlung;0;0;0;0;0;0;0;0;(null);8240;970;Elzbach;Rhein;Rhein;50.29732092;7.1698256
Rösrath;NW;2583494;5639534;GAUSS_KRUEGER_3GS;35833;3760930;weitergehende Beh.;1;1;0;0;0;0;0;0;(null);31609;3588;Sülz;Rhein;Rhein;50.88509298;7.18588412
Ediger-Eller;RP;2583496;5551233;GAUSS_KRUEGER_3GS;3800;161000;Zweitbehandlung;0;0;0;0;0;0;0;0;(null);3020;110;Mosel;Rhein;Rhein;50.09145578;7.16620238
Metelen;NW;2583589;5780875;GAUSS_KRUEGER_3GS;17500;805558;weitergehende Beh.;1;1;0;0;0;0;0;0;(null);2853;545;Vechte;Rhein;Rhein;52.155194;7.22075534
4540142001 KA Dalum;NI;2583590;5829635;GAUSS_KRUEGER_3GS;7000;367015;weitergehende Beh.;1;1;0;0;0;0;0;0;(null);2007.57205;723.01955;Dalumer Moorbeeke;Ems;Ems;52.5932901;7.23292439
Schöppingen;NW;2583796;5773597;GAUSS_KRUEGER_3GS;13000;1334225;weitergehende Beh.;1;1;0;0;0;0;0;0;(null);5008;453;Vechte;Rhein;Rhein;52.08976865;7.22198618
KA ST.WENDEL;SL;2584055;5480966;GAUSS_KRUEGER_3GS;32000;2738505;weitergehende Beh.;1;1;0;0;0;0;0;0;(null);12460;2096;Blies;Rhein;Rhein;49.45974789;7.15884406
Overath Lehmbach;NW;2584183;5644937;GAUSS_KRUEGER_3GS;15500;2249010;weitergehende Beh.;1;1;0;0;0;0;0;0;(null);23539;1239;Sülz;Rhein;Rhein;50.93355058;7.19691834
KA HEINITZ;SL;2584300;5467775;GAUSS_KRUEGER_3GS;7900;617202;weitergehende Beh.;1;1;0;0;0;0;0;0;(null);1497;278;Heinitzbach;Rhein;Rhein;49.34113234;7.15942653
KA SINNERTHAL;SL;2584300;5468810;GAUSS_KRUEGER_3GS;30000;2997886;weitergehende Beh.;1;1;0;0;0;0;0;0;(null);5296;1329;Sinnerbach;Rhein;Rhein;49.35043666;7.15964527
4540352002 KA Rühle;NI;2584350;5836480;GAUSS_KRUEGER_3GS;12500;205374;weitergehende Beh.;1;1;0;0;0;0;0;0;(null);295.73856;51.3435;Ems;Ems;Ems;52.65467028;7.24588356
KA BALTERSWEILER;SL;2584454;5484285;GAUSS_KRUEGER_3GS;8000;1930144;weitergehende Beh.;1;0;0;0;0;0;0;0;(null);15200;2888;Todbach;Rhein;Rhein;49.48952861;7.1650545
KA NIEDERLINXWEILER;SL;2584470;5476925;GAUSS_KRUEGER_3GS;2400;339347;weitergehende Beh.;1;0;0;0;0;0;0;0;(null);1357;2035;Blies;Rhein;Rhein;49.42336375;7.16370701
Lohmar;NW;2584784;5633436;GAUSS_KRUEGER_3GS;10000;831335;weitergehende Beh.;1;1;0;0;0;0;0;0;(null);8825;734;Agger;Rhein;Rhein;50.83010132;7.2028002
4570122012 KA Ditzum;NI;2584820;5910280;GAUSS_KRUEGER_3GS;3000;44000;weitergehende Beh.;1;0;0;0;0;0;0;0;(null);485;322;Ditzumer Schöpfwerkstief;Ems;Ems;53.31759313;7.27217699
KA OTTWEILER;SL;2585212;5473359;GAUSS_KRUEGER_3GS;13000;1608924;weitergehende Beh.;1;1;0;0;0;0;0;0;(null);5149;1064;Blies;Rhein;Rhein;49.39120366;7.17316798
4574012014 KA Bunde;NI;2585340;5894460;GAUSS_KRUEGER_3GS;11200;392205;weitergehende Beh.;1;1;0;0;0;0;0;0;(null);313.764;361;Gewässer III.Ordnung;Ems;Ems;53.17539479;7.27573967
KA FREISEN;SL;2585494;5491388;GAUSS_KRUEGER_3GS;5500;682172;weitergehende Beh.;1;0;0;0;0;0;0;0;(null);2899;1172;Freisbach;Rhein;Rhein;49.55323434;7.18094347
Kürten Dürscheid;NW;2585502;5652344;GAUSS_KRUEGER_3GS;13600;1281676;weitergehende Beh.;1;1;0;0;0;0;0;0;(null);9044;764;Dürschbach;Rhein;Rhein;50.99992326;7.21741691
KA WIEBELSKIRCHEN;SL;2585638;5470855;GAUSS_KRUEGER_3GS;10500;1182147;weitergehende Beh.;1;1;0;0;0;0;0;0;(null);4847;1679;Blies;Rhein;Rhein;49.3686341;7.17849615
Briedern-Mesenich Briedern;RP;2585667;5553142;GAUSS_KRUEGER_3GS;4400;141000;weitergehende Beh.;1;1;0;0;0;0;0;0;(null);880;60;Mosel;Rhein;Rhein;50.10830589;7.19696196
Lohmar Donrath;NW;2585668;5635867;GAUSS_KRUEGER_3GS;25000;1736528;weitergehende Beh.;1;1;0;0;0;0;0;0;(null);18825;1437;Agger;Rhein;Rhein;50.8518191;7.21591266
Wermelskirchen;NW;2585882;5666695;GAUSS_KRUEGER_3GS;18000;2611124;weitergehende Beh.;1;1;0;0;0;0;0;0;(null);9390;420;Eifgenbach;Rhein;Rhein;51.12883624;7.22623361
4544012001 KA Dersum;NI;2585900;5868930;GAUSS_KRUEGER_3GS;3200;142687;weitergehende Beh.;1;1;0;0;0;0;0;0;(null);1486.79854;761.94858;Walchumer Schloot;Ems;Ems;52.94595573;7.27730419
Bad Honnef;NW;2586023;5613504;GAUSS_KRUEGER_3GS;27000;1722510;weitergehende Beh.;1;1;0;0;0;0;0;1;externe Nitratrückführung;19999;1107;Rhein;Rhein;Rhein;50.65078339;7.21573248
4524032050 KA Hage;NI;2586070;5943700;GAUSS_KRUEGER_3GS;18000;573873;weitergehende Beh.;1;1;0;0;0;0;0;0;(null);856.027225;591.5674175;Elisenhoftog;Ems;Ems;53.61759818;7.30007859
4540442001 KA Rhede;NI;2586100;5882930;GAUSS_KRUEGER_3GS;8000;118765;weitergehende Beh.;1;1;0;0;0;0;0;0;(null);648.4569;308.789;Alten Emsarm;Ems;Ems;53.07169385;7.28400949
Linz-Unkel GKA;RP;2586186;5609228;GAUSS_KRUEGER_3GS;28800;1626000;weitergehende Beh.;1;1;0;0;0;0;0;0;(null);5290;930;Rhein;Rhein;Rhein;50.61232882;7.21704337
Billerbeck;NW;2586585;5761688;GAUSS_KRUEGER_3GS;20000;1993886;weitergehende Beh.;1;1;0;0;0;0;0;0;(null);14061;1408;Berkel;Rhein;Rhein;51.9823353;7.25965248
Hoppstädten-Weiersbach;RP;2586923;5498296;GAUSS_KRUEGER_3GS;23000;3062000;weitergehende Beh.;1;1;0;0;0;0;0;0;(null);18100;2450;Nahe;Rhein;Rhein;49.61512824;7.20221404
Dülmen-Rorup;NW;2587210;5751402;GAUSS_KRUEGER_3GS;3000;188370;weitergehende Beh.;1;1;0;0;0;0;0;0;(null);2202;185;Kleuterbach;Rhein;Rhein;51.88981469;7.26613984
4540352001 KA Meppen;NI;2587320;5842360;GAUSS_KRUEGER_3GS;40000;1772560;weitergehende Beh.;1;1;0;0;0;0;0;0;(null);5636.7408;1985.2672;Nordradde;Ems;Ems;52.70702666;7.29131959
Dülmen;NW;2587432;5742570;GAUSS_KRUEGER_3GS;55000;3942153;weitergehende Beh.;1;1;0;0;0;0;0;0;(null);36300;2847;Tiberbach;Rhein;Rhein;51.81042028;7.26713089
Idartal Sensweiler;RP;2587465;5515457;GAUSS_KRUEGER_3GS;2800;360000;weitergehende Beh.;1;0;0;0;0;0;0;0;(null);2900;830;Idarbach;Rhein;Rhein;49.76930982;7.21354901
Wermelskirchen Dhünn;NW;2587567;5663875;GAUSS_KRUEGER_3GS;3750;304100;weitergehende Beh.;0;1;0;0;0;0;0;0;(null);2129;117;Eifgenbach;Rhein;Rhein;51.10323895;7.24961421
Lohmar Wahlscheid;NW;2587850;5639250;GAUSS_KRUEGER_3GS;7000;1023850;weitergehende Beh.;0;0;0;0;0;0;0;1;Tropfkörper;34099;3889;Agger;Rhein;Rhein;50.88189517;7.24770231
4540322006 KA Lingen;NI;2587974;5822050;GAUSS_KRUEGER_3GS;195000;5260372;weitergehende Beh.;1;1;0;0;0;0;0;0;(null);52077.7;3156;Ems. bei km 92.86;Ems;Ems;52.52445319;7.29559001
KA HANGARD;SL;2587993;5471662;GAUSS_KRUEGER_3GS;2400;244013;weitergehende Beh.;1;0;0;0;0;0;0;0;(null);2043;885;Oster;Rhein;Rhein;49.37555339;7.2110919
Witten-Herbede;NW;2588075;5698882;GAUSS_KRUEGER_3GS;20000;1492378;weitergehende Beh.;1;1;0;0;0;0;0;0;(null);4609;2578;Ruhr;Rhein;Rhein;51.41774735;7.26547909
4520232029 KA Uthwerdum;NI;2588230;5928950;GAUSS_KRUEGER_3GS;21000;40441;weitergehende Beh.;1;1;0;0;0;0;0;0;(null);1827.99812;550.71856;ABELITZ-MOORDORF- KANAL;Ems;Ems;53.48474569;7.32855018
4540102001 KA Emsbüren;NI;2588350;5808510;GAUSS_KRUEGER_3GS;16000;406060;weitergehende Beh.;1;1;0;0;0;0;0;0;(null);734.9686;190.8482;Fleckenbach;Ems;Ems;52.40274419;7.29754321
4570212002 KA Diele;NI;2588390;5876680;GAUSS_KRUEGER_3GS;2000;50000;weitergehende Beh.;1;1;0;0;0;0;0;0;(null);126;178;Dieler Sieltief;Ems;Ems;53.01517376;7.31645317
Mayen;RP;2588503;5576760;GAUSS_KRUEGER_3GS;30000;1683000;weitergehende Beh.;1;1;0;0;0;0;0;0;(null);9120;1600;Nette;Rhein;Rhein;50.32017077;7.24209873
4544012002 KA Dörpen;NI;2588700;5873175;GAUSS_KRUEGER_3GS;13000;458729;weitergehende Beh.;1;1;0;0;0;0;0;0;(null);1389.94887;371.57049;Ems;Ems;Ems;52.98363548;7.32010931
Schwelm;NW;2589013;5684675;GAUSS_KRUEGER_3GS;48000;4035958;weitergehende Beh.;1;1;0;0;0;0;0;0;(null);30482;2708;Schwelme;Rhein;Rhein;51.28993412;7.27540765
Untere Ahr Sinzig;RP;2589016;5602751;GAUSS_KRUEGER_3GS;115000;7863000;weitergehende Beh.;1;1;0;0;0;0;0;0;(null);122600;2400;Ahr;Rhein;Rhein;50.55369256;7.25546677
4544042001 KA Lathen;NI;2589140;5860410;GAUSS_KRUEGER_3GS;10000;411729;weitergehende Beh.;1;1;0;0;0;0;0;0;(null);3145.60956;399.37713;Lathener Beeke;Ems;Ems;52.86888743;7.32315433
Haltern-Hullern;NW;2589210;5733360;GAUSS_KRUEGER_3GS;2500;177154;weitergehende Beh.;1;1;0;0;0;0;0;0;(null);2425;125;Lippe;Rhein;Rhein;51.72738303;7.29054031
KA WELLESWEILER;SL;2589300;5468000;GAUSS_KRUEGER_3GS;67000;5618606;weitergehende Beh.;1;1;0;0;0;0;0;0;(null);34835;4411;Blies;Rhein;Rhein;49.34244413;7.2282652
4570142008 KA Oldersum;NI;2589660;5911100;GAUSS_KRUEGER_3GS;4000;107876;weitergehende Beh.;1;0;0;0;0;0;0;0;(null);646.7423048;457;Oldersumer Tief Nr. 111/113;Ems;Ems;53.32416205;7.34501453
Overath;NW;2589666;5644303;GAUSS_KRUEGER_3GS;19100;2162622;weitergehende Beh.;1;1;0;0;0;0;0;0;(null);25574;2970;Agger;Rhein;Rhein;50.92702709;7.2747406
Datteln-Ahsen;NW;2589758;5730973;GAUSS_KRUEGER_3GS;2500;231867;weitergehende Beh.;0;1;0;0;0;0;0;0;(null);1287;550;Lippe;Rhein;Rhein;51.70584708;7.29785482
Bochum-Oelbachtal;NW;2589765;5702280;GAUSS_KRUEGER_3GS;300000;22580000;weitergehende Beh.;1;1;0;0;0;0;0;0;(null);171060;6285;Oelbach;Rhein;Rhein;51.44801695;7.29062733
4520072053 KA Großheide;NI;2589788;5939205;GAUSS_KRUEGER_3GS;8000;284766;weitergehende Beh.;1;1;0;0;0;0;0;0;(null);642.859245;359.2909373;Dwaswegschloot;Ems;Ems;53.57659828;7.35495355
Horstmar-Leer;NW;2589927;5776457;GAUSS_KRUEGER_3GS;11000;760724;weitergehende Beh.;1;1;0;0;0;0;0;0;(null);6995;607;Leerbach;Rhein;Rhein;52.11450366;7.31216975
Kürten;NW;2590097;5654911;GAUSS_KRUEGER_3GS;10000;1939588;weitergehende Beh.;1;1;0;0;0;0;0;0;(null);21674;1304;Kürtener Sülz;Rhein;Rhein;51.02229132;7.28349591
Hennef;NW;2590507;5628566;GAUSS_KRUEGER_3GS;45000;3948312;weitergehende Beh.;1;1;0;0;0;0;0;0;(null);42253;3793;Sieg;Rhein;Rhein;50.78546878;7.28281139
KA BLIESDALHEIM;SL;2590674;5449967;GAUSS_KRUEGER_3GS;42500;4426972;weitergehende Beh.;1;1;0;0;0;0;0;0;(null);13060;1428;Blies;Rhein;Rhein;49.18013353;7.24308839
4520122048 KA Riepe;NI;2590900;5918525;GAUSS_KRUEGER_3GS;16150;470714;weitergehende Beh.;1;1;0;0;0;0;0;0;(null);794.565232;244.0471046;BLITZ;Ems;Ems;53.39064765;7.36575134
Wetter-Albringhausen;NW;2591158;5693881;GAUSS_KRUEGER_3GS;4640;229717;weitergehende Beh.;0;1;0;0;0;0;0;0;(null);4307;672;Elbsche;Rhein;Rhein;51.37232122;7.3085024
KA LAUTENBACH;SL;2591377;5476027;GAUSS_KRUEGER_3GS;5000;485510;weitergehende Beh.;1;0;0;0;0;0;0;0;(null);4406;1008;Lautenbach;Rhein;Rhein;49.41429384;7.2586824
Steinfurt-Burgsteinfurt;NW;2591380;5781870;GAUSS_KRUEGER_3GS;46800;2206487;weitergehende Beh.;1;1;0;0;0;0;0;0;(null);10807;836;Steinfurter Aa;Rhein;Rhein;52.16289993;7.33483029
Neuenkirchen/Wettringen;NW;2591500;5789310;GAUSS_KRUEGER_3GS;44500;2134899;weitergehende Beh.;1;1;0;0;0;0;0;0;(null);21798;3486;Düsterbach;Rhein;Rhein;52.22972573;7.33859289
N.-Seelscheid Seelscheid;NW;2591556;5637698;GAUSS_KRUEGER_3GS;11000;596648;weitergehende Beh.;1;1;0;0;0;0;0;0;(null);3327;385;Wenigerbach;Rhein;Rhein;50.86737265;7.29996106
Kronweiler;RP;2591676;5503367;GAUSS_KRUEGER_3GS;18200;1741000;weitergehende Beh.;1;1;0;0;0;0;0;0;(null);9470;230;Nahe;Rhein;Rhein;49.66000897;7.26915383
KA HAUPERSWEILER;SL;2591800;5485800;GAUSS_KRUEGER_3GS;4000;854476;weitergehende Beh.;1;0;0;0;0;0;0;0;(null);1965;866;Oster;Rhein;Rhein;49.50208122;7.26677385
4540412001 KA Papenburg;NI;2591900;5885840;GAUSS_KRUEGER_3GS;48000;1932828;weitergehende Beh.;1;1;0;0;0;0;0;0;(null);19811.487;1488.27756;Sielkanal;Ems;Ems;53.09686902;7.3713505
Brohlbachtal Brohl;RP;2591902;5565306;GAUSS_KRUEGER_3GS;7000;518000;weitergehende Beh.;1;1;0;0;0;0;0;0;(null);3500;1540;Brohlbach;Rhein;Rhein;50.21670457;7.2870349
4540452001 KA Salzbergen;NI;2592170;5800510;GAUSS_KRUEGER_3GS;9000;429560;weitergehende Beh.;1;1;0;0;0;0;0;0;(null);2422.7184;347.9436;Ölgraben;Ems;Ems;52.33023996;7.35145752
Radevormwald;NW;2592367;5677634;GAUSS_KRUEGER_3GS;61100;7973723;weitergehende Beh.;1;1;0;0;0;0;0;1;Methanolzugabe;44000;3933;Wupper;Rhein;Rhein;51.2261287;7.32165813
Brohltal Niederlützingen;RP;2592602;5592667;GAUSS_KRUEGER_3GS;28000;1544000;weitergehende Beh.;1;1;0;0;0;0;0;0;(null);6760;650;Brohlbach;Rhein;Rhein;50.46250708;7.30355533
Blankenrath;RP;2592658;5546013;GAUSS_KRUEGER_3GS;3500;288000;weitergehende Beh.;1;1;0;0;0;0;0;0;(null);1060;140;Flaumbach;Rhein;Rhein;50.04318094;7.29294204
Unnertal Fohren-Linden;RP;2592693;5495768;GAUSS_KRUEGER_3GS;3000;416000;weitergehende Beh.;1;0;0;0;0;0;0;0;(null);1820;870;Hirschbach;Rhein;Rhein;49.5915475;7.28144236
Bad Honnef Aegidienberg;NW;2592941;5615054;GAUSS_KRUEGER_3GS;10000;936242;weitergehende Beh.;1;1;0;0;0;0;0;0;(null);11216;262;Kochenbach;Rhein;Rhein;50.66365166;7.31391464
Siesbachtal I.-O.;RP;2592973;5507816;GAUSS_KRUEGER_3GS;5000;456000;weitergehende Beh.;1;1;0;0;0;0;0;0;(null);3660;350;Siesbach;Rhein;Rhein;49.69980156;7.28817
Hückeswagen;NW;2593102;5669731;GAUSS_KRUEGER_3GS;48000;7458323;weitergehende Beh.;1;1;0;0;0;0;0;0;(null);43298;2326;Wupper;Rhein;Rhein;51.15499116;7.33012968
Lindlar Bruch;NW;2593194;5654238;GAUSS_KRUEGER_3GS;9800;826689;weitergehende Beh.;1;1;0;0;0;0;0;0;(null);15795;768;Sülz;Rhein;Rhein;51.01575003;7.32745101
Olfen;NW;2593301;5729939;GAUSS_KRUEGER_3GS;10850;661447;weitergehende Beh.;1;1;0;0;0;0;0;0;(null);10592;957;Lippe;Rhein;Rhein;51.69597862;7.3488179
Lager Aulenbach;RP;2593360;5500606;GAUSS_KRUEGER_3GS;3800;199000;Zweitbehandlung;0;0;0;0;0;0;0;0;(null);5480;730;Reichenbach;Rhein;Rhein;49.63493294;7.29181488
KA LIMBACH;SL;2593485;5464860;GAUSS_KRUEGER_3GS;7800;992732;weitergehende Beh.;1;1;0;0;0;0;0;0;(null);21145;2341;Blies;Rhein;Rhein;49.31359133;7.28510607
KA KLEINOTTWEILER;SL;2593496;5467727;GAUSS_KRUEGER_3GS;4350;329430;Zweitbehandlung;0;0;0;0;0;0;0;0;(null);10476;1027;Feilbach;Rhein;Rhein;49.33936189;7.28592859
Laer;NW;2593556;5771589;GAUSS_KRUEGER_3GS;11000;1147278;weitergehende Beh.;1;1;0;0;0;0;0;0;(null);7482;437;Ewaldibach;Rhein;Rhein;52.07016441;7.36379515
Welling;RP;2593561;5577280;GAUSS_KRUEGER_3GS;9000;412000;Zweitbehandlung;0;0;0;0;0;0;0;0;(null);6640;820;Nette;Rhein;Rhein;50.32406384;7.31323051
Bad Hönningen GKA;RP;2593684;5597206;GAUSS_KRUEGER_3GS;18000;1053000;weitergehende Beh.;1;1;0;0;0;0;0;0;(null);2660;820;Rhein;Rhein;Rhein;50.50312907;7.31992591
Mendig;RP;2593718;5580764;GAUSS_KRUEGER_3GS;25000;1291000;weitergehende Beh.;1;1;0;0;0;0;0;0;(null);14200;940;Krufterbach;Rhein;Rhein;50.35535175;7.31629999
Treis;RP;2593775;5561764;GAUSS_KRUEGER_3GS;33000;1494000;weitergehende Beh.;1;1;0;0;0;0;0;0;(null);17600;1270;Mosel;Rhein;Rhein;50.18457598;7.31239729
Oberes Fischbachtal Mörschied;RP;2593945;5518639;GAUSS_KRUEGER_3GS;6700;865000;weitergehende Beh.;1;0;0;0;0;0;0;0;(null);7720;1550;Asbach;Rhein;Rhein;49.79693423;7.30424718
Engelskirchen;NW;2594174;5649861;GAUSS_KRUEGER_3GS;10000;2316536;weitergehende Beh.;1;1;0;0;0;0;0;0;(null);22971;1713;Agger;Rhein;Rhein;50.97625661;7.34027835
KA SCHWARZERDEN;SL;2594233;5489566;GAUSS_KRUEGER_3GS;3000;174980;Zweitbehandlung;0;0;0;0;0;0;0;0;(null);2392;226;Pfeffelbach;Rhein;Rhein;49.53556077;7.30125336
Hennef Greuelsiefen;NW;2594340;5626967;GAUSS_KRUEGER_3GS;2600;152716;weitergehende Beh.;1;0;0;0;0;0;0;0;(null);1533;932;Sieg;Rhein;Rhein;50.77048825;7.33673977
Steinfurt-Borghorst-Süd;NW;2594425;5776295;GAUSS_KRUEGER_3GS;37000;1423759;weitergehende Beh.;1;1;0;0;0;0;0;1;Hochlastbeleb.als Vorreinigung;16442;1152;Kuhlenbach;Rhein;Rhein;52.11229871;7.37776827
Dattelner-Mühlenbach;NW;2594636;5728015;GAUSS_KRUEGER_3GS;105800;16440000;weitergehende Beh.;1;1;0;0;0;0;0;0;(null);140663;8007;Dattelner Mühlenbach;Rhein;Rhein;51.67846748;7.3675991
Gevelsberg;NW;2595107;5689420;GAUSS_KRUEGER_3GS;90000;12230000;weitergehende Beh.;1;1;0;0;0;0;0;0;(null);44721;4300;Ennepe;Rhein;Rhein;51.33158794;7.36400572
N.-Seelscheid Neunkirchen;NW;2595186;5633172;GAUSS_KRUEGER_3GS;13500;906070;weitergehende Beh.;1;1;0;0;0;0;0;0;(null);10262;500;Bröl;Rhein;Rhein;50.82611302;7.35033597
Baumholder;RP;2595286;5498584;GAUSS_KRUEGER_3GS;14000;1391000;weitergehende Beh.;1;1;0;0;0;0;0;0;(null);9910;1710;Bruderbach;Rhein;Rhein;49.61645715;7.31797951
Lindlar;NW;2595298;5653923;GAUSS_KRUEGER_3GS;12600;1401743;weitergehende Beh.;1;1;0;0;0;0;0;0;(null);13357;1203;Lennefe;Rhein;Rhein;51.01257472;7.35734276
Much Hillesheim;NW;2595325;5639234;GAUSS_KRUEGER_3GS;3000;141694;weitergehende Beh.;1;1;0;0;0;0;0;0;(null);1006;175;Wahnbach;Rhein;Rhein;50.88056736;7.35388533
4570132015 KA Leer;NI;2595380;5900540;GAUSS_KRUEGER_3GS;95000;3052033;weitergehende Beh.;1;1;0;0;0;0;0;0;(null);2411.10607;1465;Ems-km 32.5 linkes Ufer;Ems;Ems;53.22830626;7.42766435
KA HOMBURG;SL;2595464;5463288;GAUSS_KRUEGER_3GS;75000;7699704;weitergehende Beh.;1;1;0;0;0;0;0;0;(null);97530;9150;Erbach;Rhein;Rhein;49.29915436;7.31194094
4570142009 KA Neermoor;NI;2595640;5908320;GAUSS_KRUEGER_3GS;15750;67215;weitergehende Beh.;1;1;0;0;0;0;0;0;(null);3979.739045;531;Gewässer III.Ordnung;Ems;Ems;53.29814445;7.43389433
Dülmen-Buldern;NW;2595682;5747323;GAUSS_KRUEGER_3GS;6500;679762;weitergehende Beh.;1;1;0;0;0;0;0;0;(null);5108;533;N.N.;Rhein;Rhein;51.85177602;7.38803228
Hallerbachtal GKA;RP;2595750;5610420;GAUSS_KRUEGER_3GS;10000;755000;weitergehende Beh.;1;1;0;0;0;0;0;0;(null);4480;830;Hallerbach;Rhein;Rhein;50.62155119;7.35243614
Niederwörresbach;RP;2596397;5514416;GAUSS_KRUEGER_3GS;3500;422000;weitergehende Beh.;1;0;0;0;0;0;0;0;(null);2790;1190;Asbach;Rhein;Rhein;49.75858791;7.33724956
Ruppichteroth Winterscheid;NW;2596575;5631108;GAUSS_KRUEGER_3GS;3500;251313;weitergehende Beh.;1;1;0;0;0;0;0;0;(null);2157;126;Derenbach;Rhein;Rhein;50.80733469;7.36950089
4544072001 KA Berßen;NI;2597380;5859600;GAUSS_KRUEGER_3GS;3000;86110;weitergehende Beh.;1;1;0;0;0;0;0;0;(null);68.0269;83.5267;Nordradde;Ems;Ems;52.86018381;7.44523817
Dill;RP;2597434;5531587;GAUSS_KRUEGER_3GS;8000;902000;weitergehende Beh.;0;1;0;0;0;0;0;0;(null);18600;320;Dillerbach (Sohrbach);Rhein;Rhein;49.91275796;7.35594775
4544082001 KA Spelle;NI;2597450;5805180;GAUSS_KRUEGER_3GS;14000;470477;weitergehende Beh.;1;1;0;0;0;0;0;0;(null);1293.81175;249.35281;Speller Aa;Ems;Ems;52.37128353;7.43024063
4520012010 KA Aurich;NI;2597454;5926230;GAUSS_KRUEGER_3GS;97500;3033323;weitergehende Beh.;1;1;0;0;0;0;0;0;(null);18742.14449;1380.161965;Klärwerksgraben;Ems;Ems;53.45868784;7.46661466
Ochtendung;RP;2597510;5580238;GAUSS_KRUEGER_3GS;9000;444000;weitergehende Beh.;1;1;0;0;0;0;0;0;(null);2330;380;Löhbach;Rhein;Rhein;50.35000896;7.36943315
Steinfurt-Borghorst-Nord;NW;2597576;5779108;GAUSS_KRUEGER_3GS;17700;1705557;weitergehende Beh.;1;1;0;0;0;0;0;0;(null);22966;1330;Klünderbach;Ems;Ems;52.13702513;7.4245572
Zweibrücken;RP;2597625;5458204;GAUSS_KRUEGER_3GS;70000;4556000;weitergehende Beh.;1;1;0;0;0;0;0;0;(null);56900;2730;Hornbach;Rhein;Rhein;49.25311228;7.34040509
Almerich Idar-Oberstein;RP;2597681;5507901;GAUSS_KRUEGER_3GS;33000;4590000;weitergehende Beh.;1;1;0;0;0;0;0;0;(null);26800;3120;Nahe;Rhein;Rhein;49.69982131;7.35343467
Waltrop;NW;2597840;5723992;GAUSS_KRUEGER_3GS;40000;3474071;weitergehende Beh.;1;1;0;0;0;0;0;0;(null);30556;2235;Schwarzbach;Rhein;Rhein;51.64177135;7.41278133
Oberhoppen GKA;RP;2597870;5608150;GAUSS_KRUEGER_3GS;18000;1902000;weitergehende Beh.;1;1;0;0;0;0;0;0;(null);8750;1710;Wied;Rhein;Rhein;50.60079921;7.38178686
Rheine-Nord;NW;2598009;5798182;GAUSS_KRUEGER_3GS;251500;11050000;weitergehende Beh.;1;1;0;0;0;0;0;0;(null);77056;5591;N.N.;Ems;Ems;52.30831366;7.43640491
Waldmohr;RP;2598528;5472845;GAUSS_KRUEGER_3GS;9500;378000;weitergehende Beh.;1;1;0;0;0;0;0;0;(null);2340;120;Glan;Rhein;Rhein;49.38457617;7.35641658
Ennepetal Oberbauer;NW;2598561;5684751;GAUSS_KRUEGER_3GS;2800;118083;weitergehende Beh.;0;0;0;0;0;0;0;1;Tropfkörper;5652;554;Dahlenbecke;Rhein;Rhein;51.28904567;7.41225967
4624022001 KA Westerholt;NI;2598590;5940400;GAUSS_KRUEGER_3GS;6400;235509;weitergehende Beh.;1;1;0;0;0;0;0;0;(null);1006.212203;1104.53721;GROOTSCHLOOT;Ems;Ems;53.58575207;7.48816937
4544012003 KA Neubörger;NI;2598600;5871200;GAUSS_KRUEGER_3GS;8000;142476;weitergehende Beh.;1;1;0;0;0;0;0;0;(null);498.666;61.26468;Großer Schloot;Ems;Ems;52.96416512;7.46686513
Hagen Vorhalle;NW;2598615;5697001;GAUSS_KRUEGER_3GS;235000;30450000;weitergehende Beh.;1;1;0;0;0;0;0;0;(null);248873;12455;Ruhr;Rhein;Rhein;51.39911115;7.41642463
Ruppichteroth Büchel;NW;2598641;5634311;GAUSS_KRUEGER_3GS;25000;2931500;weitergehende Beh.;1;1;0;0;0;0;0;0;(null);19878;1829;Bröl;Rhein;Rhein;50.83577076;7.39966297
Kirchberg-West;RP;2598850;5534462;GAUSS_KRUEGER_3GS;4900;682000;Zweitbehandlung;0;0;0;0;0;0;0;0;(null);11200;1990;Helzenbach;Rhein;Rhein;49.93836626;7.37639267
Nottuln-Appelhülsen;NW;2598942;5751690;GAUSS_KRUEGER_3GS;27000;2754455;weitergehende Beh.;1;1;0;0;0;0;0;1;Festbettreaktor;18560;1209;Stever;Rhein;Rhein;51.89044469;7.43658058
4524022018 KA Dornumersiel;NI;2598982;5950222;GAUSS_KRUEGER_3GS;16000;393265;weitergehende Beh.;1;1;0;0;0;0;0;0;(null);2642.7408;284.3608462;Wattenmeer;Ems;Ems;53.67389787;7.49720909
Dortmund-Deusen;NW;2599001;5712436;GAUSS_KRUEGER_3GS;625000;66120000;weitergehende Beh.;1;1;0;0;0;0;0;0;(null);489314;83210;Emscher;Rhein;Rhein;51.53773464;7.4262899
Much;NW;2599127;5641595;GAUSS_KRUEGER_3GS;8800;774446;weitergehende Beh.;1;1;0;0;0;0;0;0;(null);6262;625;Wahnbach;Rhein;Rhein;50.901145;7.40853227
4540192001 KA Haselünne;NI;2599150;5837000;GAUSS_KRUEGER_3GS;32300;603838;weitergehende Beh.;1;1;0;0;0;0;0;0;(null);1183.52248;326.07252;Hase;Ems;Ems;52.65683908;7.46467583
4544062002 KA Surwold;NI;2599170;5873860;GAUSS_KRUEGER_3GS;5200;174930;weitergehende Beh.;1;1;0;0;0;0;0;0;(null);491.5533;533.5365;Großer Schloot;Ems;Ems;52.98795459;7.47616019
4570142010 KA Warsingsfehn;NI;2599220;5911080;GAUSS_KRUEGER_3GS;8000;152786;weitergehende Beh.;1;1;0;0;0;0;0;0;(null);2007.60804;142;Warsingsfehnkanal;Ems;Ems;53.32227779;7.48843364
